name,tag,dob,pob,lat,lon,dep_num,dep_name,region,url
Miguel Abensour,scholar,1939.0,Paris 10,48.88143,2.366774,75,Paris,Île-de-France,https://fr.wikipedia.org/wiki/Miguel_Abensour
Marcel Abraham,scholar,1898.0,Paris 16,48.856305,2.267032,75,Paris,Île-de-France,https://fr.wikipedia.org/wiki/Marcel_Abraham
Catherine Abadie-Reynal,scholar,1955.0,Grèce,43.614253,1.437337,31,Haute-Garonne,Occitanie,https://fr.wikipedia.org/wiki/Catherine_Abadie-Reynal
Jean Abadie,scholar,1873.0,Tarbes,43.239349,0.06402,65,Hautes-Pyrénées,Occitanie,https://fr.wikipedia.org/wiki/Jean_Abadie
Gilbert Achcar,scholar,1951.0,Beyrouth,43.246632,5.401532,13,Bouches-du-Rhône,Provence-Alpes-Côte d'Azur,https://fr.wikipedia.org/wiki/Gilbert_Achcar
Florin Aftalion,scholar,1937.0,Bucarest,48.569385,7.776079,67,Bas-Rhin,Grand Est,https://fr.wikipedia.org/wiki/Florin_Aftalion
Ezza Agha-Malak,scholar,1942.0,Tripoli (Liban),44.290897,-0.238611,33,Gironde,Nouvelle-Aquitaine,https://fr.wikipedia.org/wiki/Ezza_Agha-Malak
Charles Adam,scholar,1857.0,Charleville,47.712416,1.331499,41,Loir-et-Cher,Centre-Val de Loire,https://fr.wikipedia.org/wiki/Charles_Adam
Philippe Aghion,scholar,1956.0,Paris,48.859,2.347,75,Paris,Île-de-France,https://fr.wikipedia.org/wiki/Philippe_Aghion
Maïté Albistur,scholar,,Unknown,,,,,,https://fr.wikipedia.org/wiki/Ma%C3%AFt%C3%A9_Albistur
Pascale Alexandre-Bergues,scholar,,Unknown,,,,,,https://fr.wikipedia.org/wiki/Pascale_Alexandre-Bergues
André Akoun,scholar,1929.0,Oran,44.131436,4.812545,84,Vaucluse,Provence-Alpes-Côte d'Azur,https://fr.wikipedia.org/wiki/Andr%C3%A9_Akoun
Maurice Agulhon,scholar,1926.0,Uzès,44.021276,4.415586,30,Gard,Occitanie,https://fr.wikipedia.org/wiki/Maurice_Agulhon
Didier Alexandre,scholar,1955.0,Unknown,,,,,,https://fr.wikipedia.org/wiki/Didier_Alexandre
Gabrielle Althen,scholar,1939.0,Unknown,,,,,,https://fr.wikipedia.org/wiki/Gabrielle_Althen
Jean-Pierre Allali,scholar,1939.0,Tunis,44.05238,0.276355,47,Lot-et-Garonne,Nouvelle-Aquitaine,https://fr.wikipedia.org/wiki/Jean-Pierre_Allali
Claude Alzon,scholar,1931.0,Angers,47.467471,-0.561615,49,Maine-et-Loire,Pays de la Loire,https://fr.wikipedia.org/wiki/Claude_Alzon
Mohamed Amara,scholar,1953.0,Algérie française,43.481315,3.472724,34,Hérault,Occitanie,https://fr.wikipedia.org/wiki/Mohamed_Amara
Samir Amin,scholar,1931.0,Caire,43.247401,2.07783,11,Aude,Occitanie,https://fr.wikipedia.org/wiki/Samir_Amin
Mohammad Ali Amir-Moezzi,scholar,1956.0,Téhéran,48.876918,2.312637,75,Paris,Île-de-France,https://fr.wikipedia.org/wiki/Mohammad_Ali_Amir-Moezzi
Jean Andreau (historien),scholar,1939.0,Unknown,,,,,,https://fr.wikipedia.org/wiki/Jean_Andreau_(historien)
Ruth Amossy,scholar,1946.0,Arad (Roumanie),45.221596,1.891566,19,Corrèze,Nouvelle-Aquitaine,https://fr.wikipedia.org/wiki/Ruth_Amossy
Marc Ancel,scholar,1902.0,Izeste,43.090694,-0.426825,64,Pyrénées-Atlantiques,Nouvelle-Aquitaine,https://fr.wikipedia.org/wiki/Marc_Ancel
Christian Amphoux,scholar,1943.0,Vannes,47.659971,-2.752192,56,Morbihan,Bretagne,https://fr.wikipedia.org/wiki/Christian_Amphoux
Roger Apéry,scholar,1916.0,Rouen,49.349295,0.811661,27,Eure,Normandie,https://fr.wikipedia.org/wiki/Roger_Ap%C3%A9ry
Mario d'Angelo,scholar,1954.0,Hombourg-Haut,49.132671,6.778331,57,Moselle,Grand Est,https://fr.wikipedia.org/wiki/Mario_d%27Angelo
Paul Appell,scholar,1855.0,Strasbourg,48.579831,7.761454,67,Bas-Rhin,Grand Est,https://fr.wikipedia.org/wiki/Paul_Appell
Mohammed Arkoun,scholar,1928.0,Beni Yenni,,,,,,https://fr.wikipedia.org/wiki/Mohammed_Arkoun
Françoise Armengaud,scholar,1942.0,Paris,48.859,2.347,75,Paris,Île-de-France,https://fr.wikipedia.org/wiki/Fran%C3%A7oise_Armengaud
Raymond Aron,scholar,1905.0,Paris 6,48.849268,2.330883,75,Paris,Île-de-France,https://fr.wikipedia.org/wiki/Raymond_Aron
Jean-Robert Armogathe,scholar,1947.0,Marseille,43.282,5.405,13,Bouches-du-Rhône,Provence-Alpes-Côte d'Azur,https://fr.wikipedia.org/wiki/Jean-Robert_Armogathe
Paul Arrighi,scholar,1895.0,Corse (département),41.708523,9.158245,2A,Corse-du-Sud,Corse,https://fr.wikipedia.org/wiki/Paul_Arrighi
Michel Arrivé,scholar,1936.0,Neuilly-sur-Seine,48.886191,2.265869,92,Hauts-de-Seine,Île-de-France,https://fr.wikipedia.org/wiki/Michel_Arriv%C3%A9
Patrick Artus,scholar,1951.0,Lille,50.630951,3.045391,59,Nord,Hauts-de-France,https://fr.wikipedia.org/wiki/Patrick_Artus
Alain Aspect,scholar,1947.0,Agen,44.202304,0.631041,47,Lot-et-Garonne,Nouvelle-Aquitaine,https://fr.wikipedia.org/wiki/Alain_Aspect
Séverine Autesserre,scholar,1976.0,Paris,48.859,2.347,75,Paris,Île-de-France,https://fr.wikipedia.org/wiki/S%C3%A9verine_Autesserre
Jacques Aumont,scholar,1942.0,Avignon,48.390692,-1.759389,35,Ille-et-Vilaine,Bretagne,https://fr.wikipedia.org/wiki/Jacques_Aumont
Dominique Avon,scholar,1968.0,Gand,50.733813,3.161087,59,Nord,Hauts-de-France,https://fr.wikipedia.org/wiki/Dominique_Avon
Maurice Aymard,scholar,1936.0,Toulouse,43.604082,1.433805,31,Haute-Garonne,Occitanie,https://fr.wikipedia.org/wiki/Maurice_Aymard
Bertrand Badie,scholar,1950.0,Paris,48.859,2.347,75,Paris,Île-de-France,https://fr.wikipedia.org/wiki/Bertrand_Badie
Louis Bachelier,scholar,1870.0,Havre,49.081779,-1.601172,50,Manche,Normandie,https://fr.wikipedia.org/wiki/Louis_Bachelier
Jean-François Bach,scholar,1940.0,Yvré-l'Évêque,48.026286,0.271411,72,Sarthe,Pays de la Loire,https://fr.wikipedia.org/wiki/Jean-Fran%C3%A7ois_Bach
Jean Baechler,scholar,1937.0,Thionville,49.370681,6.150548,57,Moselle,Grand Est,https://fr.wikipedia.org/wiki/Jean_Baechler
François Baratte,scholar,1947.0,Paris 4,48.854042,2.356841,75,Paris,Île-de-France,https://fr.wikipedia.org/wiki/Fran%C3%A7ois_Baratte
Fernand Baldensperger,scholar,1871.0,Saint-Dié,47.4702,1.71704,41,Loir-et-Cher,Centre-Val de Loire,https://fr.wikipedia.org/wiki/Fernand_Baldensperger
Étienne Balibar,scholar,1942.0,Avallon,47.946724,3.016988,45,Loiret,Centre-Val de Loire,https://fr.wikipedia.org/wiki/%C3%89tienne_Balibar
Renaud Barbaras,scholar,1955.0,Paris,48.859,2.347,75,Paris,Île-de-France,https://fr.wikipedia.org/wiki/Renaud_Barbaras
Claire Barbillon,scholar,1960.0,Unknown,,,,,,https://fr.wikipedia.org/wiki/Claire_Barbillon
Laurent Baridon,scholar,1962.0,Unknown,,,,,,https://fr.wikipedia.org/wiki/Laurent_Baridon
Dominique Barthélemy (historien),scholar,1953.0,Paris,48.859,2.347,75,Paris,Île-de-France,https://fr.wikipedia.org/wiki/Dominique_Barth%C3%A9lemy_(historien)
Brigitte Basdevant-Gaudemet,scholar,1947.0,Unknown,,,,,,https://fr.wikipedia.org/wiki/Brigitte_Basdevant-Gaudemet
Alain Barrère,scholar,1910.0,Bordeaux,44.851897,-0.587877,33,Gironde,Nouvelle-Aquitaine,https://fr.wikipedia.org/wiki/Alain_Barr%C3%A8re
Raymond Barre,scholar,1924.0,Saint-Denis (La Réunion),48.921202,2.495905,93,Seine-Saint-Denis,Île-de-France,https://fr.wikipedia.org/wiki/Raymond_Barre
Emmanuèle Baumgartner,scholar,1940.0,Nogent-le-Rotrou,48.317471,0.808165,28,Eure-et-Loir,Centre-Val de Loire,https://fr.wikipedia.org/wiki/Emmanu%C3%A8le_Baumgartner
Maurice Bayen,scholar,1902.0,Metz,49.108385,6.194891,57,Moselle,Grand Est,https://fr.wikipedia.org/wiki/Maurice_Bayen
Colette Beaune,scholar,1943.0,Loir-et-Cher,47.362207,0.674311,37,Indre-et-Loire,Centre-Val de Loire,https://fr.wikipedia.org/wiki/Colette_Beaune
Guy Bégué,scholar,1932.0,Angoulême,45.644105,0.148008,16,Charente,Nouvelle-Aquitaine,https://fr.wikipedia.org/wiki/Guy_B%C3%A9gu%C3%A9
Jocelyn Benoist,scholar,1968.0,Paris,48.859,2.347,75,Paris,Île-de-France,https://fr.wikipedia.org/wiki/Jocelyn_Benoist
Alexandre Beljame,scholar,1842.0,Villiers-le-Bel,49.00324,2.399649,95,Val-d'Oise,Île-de-France,https://fr.wikipedia.org/wiki/Alexandre_Beljame
Soheib Bencheikh,scholar,1961.0,Djeddah,,,,,,https://fr.wikipedia.org/wiki/Soheib_Bencheikh
Bruno Benoit,scholar,1949.0,Lyon,45.758,4.835,69,Rhône,Auvergne-Rhône-Alpes,https://fr.wikipedia.org/wiki/Bruno_Benoit
Charles Berjole,scholar,1884.0,Angers,47.467471,-0.561615,49,Maine-et-Loire,Pays de la Loire,https://fr.wikipedia.org/wiki/Charles_Berjole
Nicole Bériou,scholar,1948.0,Saint-Pol-de-Léon,48.674443,-3.988221,29,Finistère,Bretagne,https://fr.wikipedia.org/wiki/Nicole_B%C3%A9riou
Yves-Marie Bercé,scholar,1936.0,Mesterrieux,44.645885,-0.012921,33,Gironde,Nouvelle-Aquitaine,https://fr.wikipedia.org/wiki/Yves-Marie_Berc%C3%A9
Catherine Bernié-Boissard,scholar,1952.0,Unknown,,,,,,https://fr.wikipedia.org/wiki/Catherine_Berni%C3%A9-Boissard
Jacques Berque,scholar,1910.0,Algérie française,43.481315,3.472724,34,Hérault,Occitanie,https://fr.wikipedia.org/wiki/Jacques_Berque
Simone Bertière,scholar,1926.0,Lyon,45.758,4.835,69,Rhône,Auvergne-Rhône-Alpes,https://fr.wikipedia.org/wiki/Simone_Berti%C3%A8re
Jean-Marc Berlière,scholar,1948.0,Dijon,47.331848,5.033601,21,Côte-d'Or,Bourgogne-Franche-Comté,https://fr.wikipedia.org/wiki/Jean-Marc_Berli%C3%A8re
Sophie Bessis,scholar,1947.0,Tunis,44.05238,0.276355,47,Lot-et-Garonne,Nouvelle-Aquitaine,https://fr.wikipedia.org/wiki/Sophie_Bessis
Lydéric Bocquet,scholar,1968.0,Unknown,,,,,,https://fr.wikipedia.org/wiki/Lyd%C3%A9ric_Bocquet
Bruno Béthouart,scholar,1948.0,Airon-Saint-Vaast,50.432107,1.660264,62,Pas-de-Calais,Hauts-de-France,https://fr.wikipedia.org/wiki/Bruno_B%C3%A9thouart
Bernhard Blumenkranz,scholar,1913.0,Vienne (Autriche),43.419752,5.264879,13,Bouches-du-Rhône,Provence-Alpes-Côte d'Azur,https://fr.wikipedia.org/wiki/Bernhard_Blumenkranz
Jean-Pierre Bois,scholar,1945.0,Tours,47.395476,0.695848,37,Indre-et-Loire,Centre-Val de Loire,https://fr.wikipedia.org/wiki/Jean-Pierre_Bois
Carle Bonafous-Murat,scholar,1965.0,Unknown,,,,,,https://fr.wikipedia.org/wiki/Carle_Bonafous-Murat
Yves Bonnefoy,scholar,1923.0,Tours,47.395476,0.695848,37,Indre-et-Loire,Centre-Val de Loire,https://fr.wikipedia.org/wiki/Yves_Bonnefoy
Boško Bojović,scholar,1948.0,Belgrade,43.570462,1.409628,31,Haute-Garonne,Occitanie,https://fr.wikipedia.org/wiki/Bo%C5%A1ko_Bojovi%C4%87
Alain Bonnet (chercheur),scholar,1945.0,Caudéran,44.845587,-0.613117,33,Gironde,Nouvelle-Aquitaine,https://fr.wikipedia.org/wiki/Alain_Bonnet_(chercheur)
Philippe Bordeyne,scholar,1959.0,Paris,48.859,2.347,75,Paris,Île-de-France,https://fr.wikipedia.org/wiki/Philippe_Bordeyne
Auguste Bouché-Leclercq,scholar,1842.0,Francières,48.49466,-0.843013,53,Mayenne,Pays de la Loire,https://fr.wikipedia.org/wiki/Auguste_Bouch%C3%A9-Leclercq
Émile Borel,scholar,1871.0,Saint-Affrique,43.961458,2.854273,12,Aveyron,Occitanie,https://fr.wikipedia.org/wiki/%C3%89mile_Borel
Yves Bottineau,scholar,1925.0,Nantes,47.239367,-1.555335,44,Loire-Atlantique,Pays de la Loire,https://fr.wikipedia.org/wiki/Yves_Bottineau
Jean Borella,scholar,1930.0,Nancy,48.688135,6.171263,54,Meurthe-et-Moselle,Grand Est,https://fr.wikipedia.org/wiki/Jean_Borella
André Boucherle,scholar,1924.0,Valence (Drôme),44.580095,4.753405,26,Drôme,Auvergne-Rhône-Alpes,https://fr.wikipedia.org/wiki/Andr%C3%A9_Boucherle
Patrick Boucheron,scholar,1965.0,Paris,48.859,2.347,75,Paris,Île-de-France,https://fr.wikipedia.org/wiki/Patrick_Boucheron
Édouard Bourciez,scholar,1854.0,Niort,46.327232,-0.466291,79,Deux-Sèvres,Nouvelle-Aquitaine,https://fr.wikipedia.org/wiki/%C3%89douard_Bourciez
Marc-Louis Bourgeois,scholar,1934.0,Paris,48.859,2.347,75,Paris,Île-de-France,https://fr.wikipedia.org/wiki/Marc-Louis_Bourgeois
Jacques-Olivier Boudon,scholar,1962.0,Bordeaux,44.851897,-0.587877,33,Gironde,Nouvelle-Aquitaine,https://fr.wikipedia.org/wiki/Jacques-Olivier_Boudon
Bernard Bourgeois,scholar,1929.0,Saône-et-Loire,46.57947,4.975229,71,Saône-et-Loire,Bourgogne-Franche-Comté,https://fr.wikipedia.org/wiki/Bernard_Bourgeois
Jean Boutière,scholar,1898.0,Mallemort,43.722795,5.178247,13,Bouches-du-Rhône,Provence-Alpes-Côte d'Azur,https://fr.wikipedia.org/wiki/Jean_Bouti%C3%A8re
Henri Bourguinat,scholar,1933.0,Tadousse-Ussau,43.544547,-0.192004,64,Pyrénées-Atlantiques,Nouvelle-Aquitaine,https://fr.wikipedia.org/wiki/Henri_Bourguinat
Pierre Bourdieu,scholar,1930.0,Denguin,43.366099,-0.506644,64,Pyrénées-Atlantiques,Nouvelle-Aquitaine,https://fr.wikipedia.org/wiki/Pierre_Bourdieu
Rémi Brague,scholar,1947.0,Paris,48.859,2.347,75,Paris,Île-de-France,https://fr.wikipedia.org/wiki/R%C3%A9mi_Brague
Henri Breuil,scholar,1877.0,Mortain,48.611003,-0.940307,50,Manche,Normandie,https://fr.wikipedia.org/wiki/Henri_Breuil
Yves Bréchet,scholar,1961.0,Chamalières,45.774269,3.060492,63,Puy-de-Dôme,Auvergne-Rhône-Alpes,https://fr.wikipedia.org/wiki/Yves_Br%C3%A9chet
Jean-Éric Branaa,scholar,1963.0,Orthez,43.493121,-0.773351,64,Pyrénées-Atlantiques,Nouvelle-Aquitaine,https://fr.wikipedia.org/wiki/Jean-%C3%89ric_Branaa
Françoise Briquel-Chatonnet,scholar,1956.0,Lyon,45.758,4.835,69,Rhône,Auvergne-Rhône-Alpes,https://fr.wikipedia.org/wiki/Fran%C3%A7oise_Briquel-Chatonnet
François Bricaire,scholar,1947.0,Neuilly-sur-Seine,48.886191,2.265869,92,Hauts-de-Seine,Île-de-France,https://fr.wikipedia.org/wiki/Fran%C3%A7ois_Bricaire
Rémi Brissiaud,scholar,1949.0,Paris 17,48.887702,2.304844,75,Paris,Île-de-France,https://fr.wikipedia.org/wiki/R%C3%A9mi_Brissiaud
Jean Brun (philosophe),scholar,1919.0,Agen,44.202304,0.631041,47,Lot-et-Garonne,Nouvelle-Aquitaine,https://fr.wikipedia.org/wiki/Jean_Brun_(philosophe)
Marie-France Brive,scholar,1945.0,Avignon,48.390692,-1.759389,35,Ille-et-Vilaine,Bretagne,https://fr.wikipedia.org/wiki/Marie-France_Brive
Alain Bui,scholar,1969.0,Unknown,,,,,,https://fr.wikipedia.org/wiki/Alain_Bui
Michel Bur,scholar,1933.0,Gray (Haute-Saône),,,,,,https://fr.wikipedia.org/wiki/Michel_Bur
Guy Burgel,scholar,1939.0,Paris 17,48.887702,2.304844,75,Paris,Île-de-France,https://fr.wikipedia.org/wiki/Guy_Burgel
Francis Caballero,scholar,1940.0,Sofia,48.884773,2.348329,75,Paris,Île-de-France,https://fr.wikipedia.org/wiki/Francis_Caballero
Mireille Calle-Gruber,scholar,1945.0,Unknown,,,,,,https://fr.wikipedia.org/wiki/Mireille_Calle-Gruber
Fabien Calvo,scholar,,Unknown,,,,,,https://fr.wikipedia.org/wiki/Fabien_Calvo
Raymonde Carasco,scholar,1939.0,Carcassonne,43.206781,2.349415,11,Aude,Occitanie,https://fr.wikipedia.org/wiki/Raymonde_Carasco
Monique Canto-Sperber,scholar,1954.0,Algérie française,43.481315,3.472724,34,Hérault,Occitanie,https://fr.wikipedia.org/wiki/Monique_Canto-Sperber
Hélène Carrère d'Encausse,scholar,1929.0,Paris 16,48.856305,2.267032,75,Paris,Île-de-France,https://fr.wikipedia.org/wiki/H%C3%A9l%C3%A8ne_Carr%C3%A8re_d%27Encausse
Jean-Claude Casanova,scholar,1934.0,Ajaccio,41.93368,8.715325,2A,Corse-du-Sud,Corse,https://fr.wikipedia.org/wiki/Jean-Claude_Casanova
Jacqueline Chabbi,scholar,1943.0,Unknown,,,,,,https://fr.wikipedia.org/wiki/Jacqueline_Chabbi
Jean Caune,scholar,1938.0,Charenton-le-Pont,48.823948,2.407129,94,Val-de-Marne,Île-de-France,https://fr.wikipedia.org/wiki/Jean_Caune
Jean Cavaillès,scholar,1903.0,Saint-Maixent-l'École,46.412912,-0.206888,79,Deux-Sèvres,Nouvelle-Aquitaine,https://fr.wikipedia.org/wiki/Jean_Cavaill%C3%A8s
Dominique Chagnollaud,scholar,1956.0,Unknown,,,,,,https://fr.wikipedia.org/wiki/Dominique_Chagnollaud
Barbara Cassin,scholar,1947.0,Boulogne-Billancourt,,,,,,https://fr.wikipedia.org/wiki/Barbara_Cassin
Henri Chambre,scholar,1908.0,Chambéry,47.165242,-1.034458,49,Maine-et-Loire,Pays de la Loire,https://fr.wikipedia.org/wiki/Henri_Chambre
Sébastien Charléty,scholar,1867.0,Chambéry,47.165242,-1.034458,49,Maine-et-Loire,Pays de la Loire,https://fr.wikipedia.org/wiki/S%C3%A9bastien_Charl%C3%A9ty
André Charrak,scholar,,Unknown,,,,,,https://fr.wikipedia.org/wiki/Andr%C3%A9_Charrak
René Chamussy,scholar,1936.0,Lyon et mort le 27 oc,,,,,,https://fr.wikipedia.org/wiki/Ren%C3%A9_Chamussy
Dominique Charpin,scholar,1954.0,Neuilly-sur-Seine,48.886191,2.265869,92,Hauts-de-Seine,Île-de-France,https://fr.wikipedia.org/wiki/Dominique_Charpin
Dominique Chateau,scholar,1948.0,Vincennes,48.847279,2.437785,94,Val-de-Marne,Île-de-France,https://fr.wikipedia.org/wiki/Dominique_Chateau
Ghislaine Chartron,scholar,1961.0,Paris,48.859,2.347,75,Paris,Île-de-France,https://fr.wikipedia.org/wiki/Ghislaine_Chartron
Jean Chatelain,scholar,1916.0,Nice,43.71273,7.25092,06,Alpes-Maritimes,Provence-Alpes-Côte d'Azur,https://fr.wikipedia.org/wiki/Jean_Chatelain
François Châtelet (philosophe),scholar,1925.0,Paris 16,48.856305,2.267032,75,Paris,Île-de-France,https://fr.wikipedia.org/wiki/Fran%C3%A7ois_Ch%C3%A2telet_(philosophe)
Christiane Chauviré,scholar,1945.0,Lyon,45.758,4.835,69,Rhône,Auvergne-Rhône-Alpes,https://fr.wikipedia.org/wiki/Christiane_Chauvir%C3%A9
Noëlle Châtelet,scholar,1944.0,Meudon,16.260195,-61.274559,971,Guadeloupe,,https://fr.wikipedia.org/wiki/No%C3%ABlle_Ch%C3%A2telet
François Chazel,scholar,1937.0,Paris 16,48.856305,2.267032,75,Paris,Île-de-France,https://fr.wikipedia.org/wiki/Fran%C3%A7ois_Chazel
Dominique Chevallier,scholar,1928.0,Paris 8,48.873998,2.31129,75,Paris,Île-de-France,https://fr.wikipedia.org/wiki/Dominique_Chevallier
Anne Cheng,scholar,1955.0,Paris,48.859,2.347,75,Paris,Île-de-France,https://fr.wikipedia.org/wiki/Anne_Cheng
Jacques Chevrier,scholar,1934.0,Rueil-Malmaison,48.874531,2.180455,92,Hauts-de-Seine,Île-de-France,https://fr.wikipedia.org/wiki/Jacques_Chevrier
François Cheng,scholar,1929.0,Nanchang,49.929141,4.66695,08,Ardennes,Grand Est,https://fr.wikipedia.org/wiki/Fran%C3%A7ois_Cheng
Pierre Clarac,scholar,1894.0,Bordeaux,44.851897,-0.587877,33,Gironde,Nouvelle-Aquitaine,https://fr.wikipedia.org/wiki/Pierre_Clarac
Pierre Chuvin,scholar,1943.0,Saint-Angel (Allier),46.355329,2.694897,03,Allier,Auvergne-Rhône-Alpes,https://fr.wikipedia.org/wiki/Pierre_Chuvin
Michel Christol,scholar,1942.0,Castelnau-de-Guers,43.437431,3.438623,34,Hérault,Occitanie,https://fr.wikipedia.org/wiki/Michel_Christol
Jean Cléder,scholar,1964.0,Unknown,,,,,,https://fr.wikipedia.org/wiki/Jean_Cl%C3%A9der
Daniel Cohen (économiste),scholar,1953.0,Tunis,44.05238,0.276355,47,Lot-et-Garonne,Nouvelle-Aquitaine,https://fr.wikipedia.org/wiki/Daniel_Cohen_(%C3%A9conomiste)
Alain Colas,scholar,1943.0,Clamecy (Nièvre),47.455864,3.505066,58,Nièvre,Bourgogne-Franche-Comté,https://fr.wikipedia.org/wiki/Alain_Colas
Claude Combes,scholar,1935.0,Perpignan,42.701507,2.902811,66,Pyrénées-Orientales,Occitanie,https://fr.wikipedia.org/wiki/Claude_Combes
Marcel Clément,scholar,1921.0,Crépy-en-Valois,49.234294,2.893527,60,Oise,Hauts-de-France,https://fr.wikipedia.org/wiki/Marcel_Cl%C3%A9ment
Jean-Pierre Cometti,scholar,1944.0,Marseille,43.282,5.405,13,Bouches-du-Rhône,Provence-Alpes-Côte d'Azur,https://fr.wikipedia.org/wiki/Jean-Pierre_Cometti
Jacques Colette,scholar,1929.0,Belgique,47.760118,-3.3831,56,Morbihan,Bretagne,https://fr.wikipedia.org/wiki/Jacques_Colette
Gérard Conac,scholar,1930.0,Vorey,45.193122,3.91346,43,Haute-Loire,Auvergne-Rhône-Alpes,https://fr.wikipedia.org/wiki/G%C3%A9rard_Conac
Marcel Conche,scholar,1922.0,Corrèze,45.365038,1.862942,19,Corrèze,Nouvelle-Aquitaine,https://fr.wikipedia.org/wiki/Marcel_Conche
Antoine Compagnon,scholar,1950.0,Bruxelles au XXe siècle,49.005366,-0.390065,14,Calvados,Normandie,https://fr.wikipedia.org/wiki/Antoine_Compagnon
Philippe Contamine,scholar,1932.0,Metz,49.108385,6.194891,57,Moselle,Grand Est,https://fr.wikipedia.org/wiki/Philippe_Contamine
Ellen Constans,scholar,1930.0,Arnhem,48.085445,-1.658426,35,Ille-et-Vilaine,Bretagne,https://fr.wikipedia.org/wiki/Ellen_Constans
Yves Coppens,scholar,1934.0,Vannes,47.659971,-2.752192,56,Morbihan,Bretagne,https://fr.wikipedia.org/wiki/Yves_Coppens
Georges Contenau,scholar,1877.0,Laon,49.570287,3.614719,02,Aisne,Hauts-de-France,https://fr.wikipedia.org/wiki/Georges_Contenau
Mireille Corbier,scholar,1943.0,CNRS et directrice de,,,,,,https://fr.wikipedia.org/wiki/Mireille_Corbier
Eugène Cottard,scholar,1873.0,Annecy,45.901584,6.125296,74,Haute-Savoie,Auvergne-Rhône-Alpes,https://fr.wikipedia.org/wiki/Eug%C3%A8ne_Cottard
Henry Corbin,scholar,1903.0,Paris 7,48.853954,2.312864,75,Paris,Île-de-France,https://fr.wikipedia.org/wiki/Henry_Corbin
Pascale Cossart,scholar,1948.0,Cambrai,50.172628,3.240712,59,Nord,Hauts-de-France,https://fr.wikipedia.org/wiki/Pascale_Cossart
Marie-Jeanne Coutagne,scholar,1950.0,Paris,48.859,2.347,75,Paris,Île-de-France,https://fr.wikipedia.org/wiki/Marie-Jeanne_Coutagne
Jean-François Courtine,scholar,1944.0,Unknown,,,,,,https://fr.wikipedia.org/wiki/Jean-Fran%C3%A7ois_Courtine
Marcel Courthiade,scholar,1953.0,Montceau-les-Mines,46.676942,4.358337,71,Saône-et-Loire,Bourgogne-Franche-Comté,https://fr.wikipedia.org/wiki/Marcel_Courthiade
André Crépin,scholar,1928.0,Abbeville,50.105799,1.828902,80,Somme,Hauts-de-France,https://fr.wikipedia.org/wiki/Andr%C3%A9_Cr%C3%A9pin
Léon Cristiani,scholar,1879.0,Escurolles,46.142478,3.272838,03,Allier,Auvergne-Rhône-Alpes,https://fr.wikipedia.org/wiki/L%C3%A9on_Cristiani
Marc Crépon,scholar,1962.0,Decize,46.809753,3.473532,58,Nièvre,Bourgogne-Franche-Comté,https://fr.wikipedia.org/wiki/Marc_Cr%C3%A9pon
Michel Crouzet,scholar,1928.0,Nantes,47.239367,-1.555335,44,Loire-Atlantique,Pays de la Loire,https://fr.wikipedia.org/wiki/Michel_Crouzet
Maxime Crochemore,scholar,1947.0,Fécamp,49.750369,0.396705,76,Seine-Maritime,Normandie,https://fr.wikipedia.org/wiki/Maxime_Crochemore
Denis Crouzet,scholar,1953.0,Paris,48.859,2.347,75,Paris,Île-de-France,https://fr.wikipedia.org/wiki/Denis_Crouzet
Marie Curie,scholar,1867.0,Varsovie,43.596489,1.430218,31,Haute-Garonne,Occitanie,https://fr.wikipedia.org/wiki/Marie_Curie
Gilbert Dagron,scholar,1932.0,Unknown,,,,,,https://fr.wikipedia.org/wiki/Gilbert_Dagron
Jacques Dalarun,scholar,1952.0,Boulogne-Billancourt,48.837799,2.243202,92,Hauts-de-Seine,Île-de-France,https://fr.wikipedia.org/wiki/Jacques_Dalarun
Bruno Dagens,scholar,1935.0,Nimègue,48.085726,-1.659625,35,Ille-et-Vilaine,Bretagne,https://fr.wikipedia.org/wiki/Bruno_Dagens
Paul Darbois,scholar,1873.0,Charolles en Saône-et,46.443772,4.30193,71,Saône-et-Loire,Bourgogne-Franche-Comté,https://fr.wikipedia.org/wiki/Paul_Darbois
Daniel Dahan,scholar,1969.0,Annecy,45.901584,6.125296,74,Haute-Savoie,Auvergne-Rhône-Alpes,https://fr.wikipedia.org/wiki/Daniel_Dahan
Yves Daudet,scholar,1940.0,Bordeaux,44.851897,-0.587877,33,Gironde,Nouvelle-Aquitaine,https://fr.wikipedia.org/wiki/Yves_Daudet
René David (juriste),scholar,1906.0,Paris 6,48.849268,2.330883,75,Paris,Île-de-France,https://fr.wikipedia.org/wiki/Ren%C3%A9_David_(juriste)
Françoise Dastur,scholar,1942.0,Lyon,45.758,4.835,69,Rhône,Auvergne-Rhône-Alpes,https://fr.wikipedia.org/wiki/Fran%C3%A7oise_Dastur
Suzanne Daveau,scholar,1925.0,Ribeiro,44.85582,1.882273,46,Lot,Occitanie,https://fr.wikipedia.org/wiki/Suzanne_Daveau
Charles Debbasch,scholar,1937.0,Tunis,44.05238,0.276355,47,Lot-et-Garonne,Nouvelle-Aquitaine,https://fr.wikipedia.org/wiki/Charles_Debbasch
Guy Debeyre,scholar,1911.0,Lille,50.630951,3.045391,59,Nord,Hauts-de-France,https://fr.wikipedia.org/wiki/Guy_Debeyre
Muriel Debié,scholar,1967.0,Unknown,,,,,,https://fr.wikipedia.org/wiki/Muriel_Debi%C3%A9
Michel Deguy,scholar,1930.0,Draveil,48.677829,2.412138,91,Essonne,Île-de-France,https://fr.wikipedia.org/wiki/Michel_Deguy
Jean Delabroy,scholar,1947.0,Bordeaux,44.851897,-0.587877,33,Gironde,Nouvelle-Aquitaine,https://fr.wikipedia.org/wiki/Jean_Delabroy
Jean-Claude Delarue,scholar,1939.0,Unknown,,,,,,https://fr.wikipedia.org/wiki/Jean-Claude_Delarue
Jean Delumeau,scholar,1923.0,Nantes,47.239367,-1.555335,44,Loire-Atlantique,Pays de la Loire,https://fr.wikipedia.org/wiki/Jean_Delumeau
Jean-Marie Dentzer,scholar,1935.0,Strasbourg,48.579831,7.761454,67,Bas-Rhin,Grand Est,https://fr.wikipedia.org/wiki/Jean-Marie_Dentzer
Paul Delmas-Marsalet,scholar,1898.0,Dax au XIXe siècle,44.0441,1.103216,82,Tarn-et-Garonne,Occitanie,https://fr.wikipedia.org/wiki/Paul_Delmas-Marsalet
Alain Derville,scholar,1924.0,Paris 10,48.88143,2.366774,75,Paris,Île-de-France,https://fr.wikipedia.org/wiki/Alain_Derville
Pierre Delvolvé,scholar,1940.0,Tarn-et-Garonne,44.218708,-1.290292,40,Landes,Nouvelle-Aquitaine,https://fr.wikipedia.org/wiki/Pierre_Delvolv%C3%A9
François Déroche,scholar,1952.0,Metz,49.108385,6.194891,57,Moselle,Grand Est,https://fr.wikipedia.org/wiki/Fran%C3%A7ois_D%C3%A9roche
Jehan Desanges,scholar,1929.0,Nantes,47.239367,-1.555335,44,Loire-Atlantique,Pays de la Loire,https://fr.wikipedia.org/wiki/Jehan_Desanges
Sirarpie Der Nersessian,scholar,1896.0,Constantinople,47.019937,0.638264,37,Indre-et-Loire,Centre-Val de Loire,https://fr.wikipedia.org/wiki/Sirarpie_Der_Nersessian
Gabriel Désert,scholar,1924.0,Condé-sur-Noireau,48.84479,-0.555088,14,Calvados,Normandie,https://fr.wikipedia.org/wiki/Gabriel_D%C3%A9sert
Jean Deschamps (professeur),scholar,1925.0,Charente,43.583418,1.408267,31,Haute-Garonne,Occitanie,https://fr.wikipedia.org/wiki/Jean_Deschamps_(professeur)
Savitri Devi,scholar,1905.0,Lyon,45.758,4.835,69,Rhône,Auvergne-Rhône-Alpes,https://fr.wikipedia.org/wiki/Savitri_Devi
Jean-Louis Dessalles,scholar,1956.0,Périgueux,45.193072,0.711299,24,Dordogne,Nouvelle-Aquitaine,https://fr.wikipedia.org/wiki/Jean-Louis_Dessalles
Charles Diehl,scholar,1859.0,Strasbourg,48.579831,7.761454,67,Bas-Rhin,Grand Est,https://fr.wikipedia.org/wiki/Charles_Diehl
Monique Dixsaut,scholar,1935.0,Unknown,,,,,,https://fr.wikipedia.org/wiki/Monique_Dixsaut
Neagu Djuvara,scholar,1916.0,Bucarest,48.569385,7.776079,67,Bas-Rhin,Grand Est,https://fr.wikipedia.org/wiki/Neagu_Djuvara
Michel Devoret,scholar,1953.0,Paris,48.859,2.347,75,Paris,Île-de-France,https://fr.wikipedia.org/wiki/Michel_Devoret
Nadine Dobrovolskaïa-Zavadskaïa,scholar,1878.0,Kiev,43.571063,1.404782,31,Haute-Garonne,Occitanie,https://fr.wikipedia.org/wiki/Nadine_Dobrovolska%C3%AFa-Zavadska%C3%AFa
François Dolbeau,scholar,1947.0,Angers,47.467471,-0.561615,49,Maine-et-Loire,Pays de la Loire,https://fr.wikipedia.org/wiki/Fran%C3%A7ois_Dolbeau
François Dosse,scholar,1950.0,Unknown,,,,,,https://fr.wikipedia.org/wiki/Fran%C3%A7ois_Dosse
Henri Donnedieu de Vabres,scholar,1880.0,Nîmes,43.814652,4.356289,30,Gard,Occitanie,https://fr.wikipedia.org/wiki/Henri_Donnedieu_de_Vabres
Pierre Donzelot,scholar,1901.0,Valentigney,47.465945,6.829692,25,Doubs,Bourgogne-Franche-Comté,https://fr.wikipedia.org/wiki/Pierre_Donzelot
Marcel Dorigny,scholar,1948.0,Paris 18,48.896214,2.362997,75,Paris,Île-de-France,https://fr.wikipedia.org/wiki/Marcel_Dorigny
Raphaël Draï,scholar,1942.0,Constantine,46.83879,-1.467818,85,Vendée,Pays de la Loire,https://fr.wikipedia.org/wiki/Rapha%C3%ABl_Dra%C3%AF
Hédi Dridi,scholar,1966.0,Tunis,44.05238,0.276355,47,Lot-et-Garonne,Nouvelle-Aquitaine,https://fr.wikipedia.org/wiki/H%C3%A9di_Dridi
Marcel Dubois,scholar,1920.0,Tourcoing,50.720797,3.157799,59,Nord,Hauts-de-France,https://fr.wikipedia.org/wiki/Marcel_Dubois
Georges Duby,scholar,1919.0,Paris 10,48.88143,2.366774,75,Paris,Île-de-France,https://fr.wikipedia.org/wiki/Georges_Duby
Louis Duchesne,scholar,1843.0,Saint-Servan,47.589834,0.924302,37,Indre-et-Loire,Centre-Val de Loire,https://fr.wikipedia.org/wiki/Louis_Duchesne
Anne Dufourmantelle,scholar,1964.0,Paris 8,48.873998,2.31129,75,Paris,Île-de-France,https://fr.wikipedia.org/wiki/Anne_Dufourmantelle
Pascal Dumontier,scholar,,Unknown,,,,,,https://fr.wikipedia.org/wiki/Pascal_Dumontier
Thierry Dufrêne,scholar,1957.0,Unknown,,,,,,https://fr.wikipedia.org/wiki/Thierry_Dufr%C3%AAne
Georges Dumézil,scholar,1898.0,Paris 12,48.833494,2.415411,75,Paris,Île-de-France,https://fr.wikipedia.org/wiki/Georges_Dum%C3%A9zil
Gabriel Dupuy,scholar,1941.0,Unknown,,,,,,https://fr.wikipedia.org/wiki/Gabriel_Dupuy
Louis Dumont,scholar,1911.0,Thessalonique,,,,,,https://fr.wikipedia.org/wiki/Louis_Dumont
Jacques Duraffourg,scholar,2008.0,Lyon le 27 mars 1942,43.331419,5.364735,13,Bouches-du-Rhône,Provence-Alpes-Côte d'Azur,https://fr.wikipedia.org/wiki/Jacques_Duraffourg
Marcel Durliat,scholar,1917.0,Unknown,,,,,,https://fr.wikipedia.org/wiki/Marcel_Durliat
Jean-Marie Durand,scholar,1940.0,Unknown,,,,,,https://fr.wikipedia.org/wiki/Jean-Marie_Durand
Émile Durand-Gréville,scholar,1838.0,Montpellier,43.610476,3.87048,34,Hérault,Occitanie,https://fr.wikipedia.org/wiki/%C3%89mile_Durand-Gr%C3%A9ville
Régis Durand (critique d'art),scholar,1941.0,Sarlat,45.613585,3.271056,63,Puy-de-Dôme,Auvergne-Rhône-Alpes,https://fr.wikipedia.org/wiki/R%C3%A9gis_Durand_(critique_d%27art)
Noël Duval,scholar,1929.0,Chesnay-Rocquencourt,48.82791,2.116501,78,Yvelines,Île-de-France,https://fr.wikipedia.org/wiki/No%C3%ABl_Duval
Yves-Marie Duval,scholar,1934.0,Gravelines,50.989077,2.134207,59,Nord,Hauts-de-France,https://fr.wikipedia.org/wiki/Yves-Marie_Duval
Yvette Duval,scholar,1931.0,Oujda,,,,,,https://fr.wikipedia.org/wiki/Yvette_Duval
Ivar Ekeland,scholar,1944.0,Paris,48.859,2.347,75,Paris,Île-de-France,https://fr.wikipedia.org/wiki/Ivar_Ekeland
Pierre Duviols,scholar,1928.0,Paris,48.859,2.347,75,Paris,Île-de-France,https://fr.wikipedia.org/wiki/Pierre_Duviols
Jacques Ehrmann,scholar,1931.0,Mulhouse,47.749509,7.36973,68,Haut-Rhin,Grand Est,https://fr.wikipedia.org/wiki/Jacques_Ehrmann
Maurice Duverger,scholar,1917.0,Angoulême,45.644105,0.148008,16,Charente,Nouvelle-Aquitaine,https://fr.wikipedia.org/wiki/Maurice_Duverger
Nicole El Karoui,scholar,1944.0,Paris,48.859,2.347,75,Paris,Île-de-France,https://fr.wikipedia.org/wiki/Nicole_El_Karoui
Jean Emelina,scholar,1934.0,Malaussène,43.927319,7.115851,06,Alpes-Maritimes,Provence-Alpes-Côte d'Azur,https://fr.wikipedia.org/wiki/Jean_Emelina
Jean-Paul Engélibert,scholar,1964.0,Unknown,,,,,,https://fr.wikipedia.org/wiki/Jean-Paul_Eng%C3%A9libert
Alfred Ernout,scholar,1879.0,Lille,50.630951,3.045391,59,Nord,Hauts-de-France,https://fr.wikipedia.org/wiki/Alfred_Ernout
Jean-Yves Empereur,scholar,1952.0,Mans,47.993378,0.191169,72,Sarthe,Pays de la Loire,https://fr.wikipedia.org/wiki/Jean-Yves_Empereur
Éliane Escoubas,scholar,1937.0,Unknown,,,,,,https://fr.wikipedia.org/wiki/%C3%89liane_Escoubas
Adhémar Esmein,scholar,1913.0,Charente,43.583418,1.408267,31,Haute-Garonne,Occitanie,https://fr.wikipedia.org/wiki/Adh%C3%A9mar_Esmein
Claude Esteban,scholar,1935.0,Paris 9,48.87727,2.33371,75,Paris,Île-de-France,https://fr.wikipedia.org/wiki/Claude_Esteban
Franck Évrard,scholar,1960.0,Paris 15,48.84162,2.295289,75,Paris,Île-de-France,https://fr.wikipedia.org/wiki/Franck_%C3%89vrard
Annie Ernaux,scholar,1940.0,Lillebonne,49.519589,0.534929,76,Seine-Maritime,Normandie,https://fr.wikipedia.org/wiki/Annie_Ernaux
Maurice Euzennat,scholar,,,,,,,,https://fr.wikipedia.org/wiki/Maurice_Euzennat
François Ewald,scholar,1946.0,Boulogne-Billancourt,48.837799,2.243202,92,Hauts-de-Seine,Île-de-France,https://fr.wikipedia.org/wiki/Fran%C3%A7ois_Ewald
Olivier Faron,scholar,1959.0,Tours,47.395476,0.695848,37,Indre-et-Loire,Centre-Val de Loire,https://fr.wikipedia.org/wiki/Olivier_Faron
Denis Fadda,scholar,1943.0,Annaba,47.745536,-3.387898,56,Morbihan,Bretagne,https://fr.wikipedia.org/wiki/Denis_Fadda
François Farges,scholar,1962.0,Eure-et-Loir,48.435568,1.48376,28,Eure-et-Loir,Centre-Val de Loire,https://fr.wikipedia.org/wiki/Fran%C3%A7ois_Farges
Lucien Febvre,scholar,1878.0,Nancy,48.688135,6.171263,54,Meurthe-et-Moselle,Grand Est,https://fr.wikipedia.org/wiki/Lucien_Febvre
Marc Ferro,scholar,1924.0,Paris 8,48.873998,2.31129,75,Paris,Île-de-France,https://fr.wikipedia.org/wiki/Marc_Ferro
Louis Favoreu,scholar,1936.0,Lucq-de-Béarn,43.292186,-0.637884,64,Pyrénées-Atlantiques,Nouvelle-Aquitaine,https://fr.wikipedia.org/wiki/Louis_Favoreu
Jean-Louis Ferrary,scholar,1948.0,Orléans,47.873569,1.911358,45,Loiret,Centre-Val de Loire,https://fr.wikipedia.org/wiki/Jean-Louis_Ferrary
Robert Ferras,scholar,1935.0,Capestang,43.319273,3.071682,34,Hérault,Occitanie,https://fr.wikipedia.org/wiki/Robert_Ferras
Gilles Ferry,scholar,1917.0,Paris 7,48.853954,2.312864,75,Paris,Île-de-France,https://fr.wikipedia.org/wiki/Gilles_Ferry
David Feuerwerker,scholar,1912.0,Genève,47.21202,-1.60215,44,Loire-Atlantique,Pays de la Loire,https://fr.wikipedia.org/wiki/David_Feuerwerker
Pierre-Sylvain Filliozat,scholar,1936.0,Neuilly-sur-Seine,48.886191,2.265869,92,Hauts-de-Seine,Île-de-France,https://fr.wikipedia.org/wiki/Pierre-Sylvain_Filliozat
Paul-Albert Février,scholar,1931.0,Cannes,43.555468,7.004585,06,Alpes-Maritimes,Provence-Alpes-Côte d'Azur,https://fr.wikipedia.org/wiki/Paul-Albert_F%C3%A9vrier
Utilisateur:FlorianFerrand/Dan Ferrand-Bechmann,scholar,,Unknown,,,,,,https://fr.wikipedia.org/wiki/Utilisateur:FlorianFerrand/Dan_Ferrand-Bechmann
Léon Fleuriot,scholar,1923.0,Morlaix,48.595154,-3.820202,29,Finistère,Bretagne,https://fr.wikipedia.org/wiki/L%C3%A9on_Fleuriot
Raymonde Foreville,scholar,1904.0,Montpellier,43.610476,3.87048,34,Hérault,Occitanie,https://fr.wikipedia.org/wiki/Raymonde_Foreville
Jacques Fontaine,scholar,1922.0,Lilas,46.652696,0.36838,86,Vienne,Nouvelle-Aquitaine,https://fr.wikipedia.org/wiki/Jacques_Fontaine
Élisabeth de Fontenay,scholar,1934.0,Unknown,,,,,,https://fr.wikipedia.org/wiki/%C3%89lisabeth_de_Fontenay
Éric Fouache,scholar,1965.0,Havre,49.081779,-1.601172,50,Manche,Normandie,https://fr.wikipedia.org/wiki/%C3%89ric_Fouache
Charles Foulon,scholar,1912.0,Marseille,43.282,5.405,13,Bouches-du-Rhône,Provence-Alpes-Côte d'Azur,https://fr.wikipedia.org/wiki/Charles_Foulon
Pierre Fouché,scholar,1891.0,Ille-sur-Têt,42.672938,2.629795,66,Pyrénées-Orientales,Occitanie,https://fr.wikipedia.org/wiki/Pierre_Fouch%C3%A9
Laurent Fourcaut,scholar,1950.0,Alger,48.334676,-0.546793,53,Mayenne,Pays de la Loire,https://fr.wikipedia.org/wiki/Laurent_Fourcaut
Jean-Luc Fournet,scholar,1965.0,Bordeaux,44.851897,-0.587877,33,Gironde,Nouvelle-Aquitaine,https://fr.wikipedia.org/wiki/Jean-Luc_Fournet
Marcel Freydefont,scholar,1948.0,Randan dans le Puy-de,46.017438,3.353131,63,Puy-de-Dôme,Auvergne-Rhône-Alpes,https://fr.wikipedia.org/wiki/Marcel_Freydefont
Frédéric Fréry,scholar,1966.0,Paris,48.859,2.347,75,Paris,Île-de-France,https://fr.wikipedia.org/wiki/Fr%C3%A9d%C3%A9ric_Fr%C3%A9ry
Bernard Francou,scholar,1948.0,Briançon,44.896187,6.637231,05,Hautes-Alpes,Provence-Alpes-Côte d'Azur,https://fr.wikipedia.org/wiki/Bernard_Francou
Jean-Jacques Friboulet,scholar,1949.0,Dijon,47.331848,5.033601,21,Côte-d'Or,Bourgogne-Franche-Comté,https://fr.wikipedia.org/wiki/Jean-Jacques_Friboulet
Alain Fuchs,scholar,1953.0,Lausanne,47.043244,1.182838,37,Indre-et-Loire,Centre-Val de Loire,https://fr.wikipedia.org/wiki/Alain_Fuchs
Claude Frioux,scholar,1932.0,Paris 16,48.856305,2.267032,75,Paris,Île-de-France,https://fr.wikipedia.org/wiki/Claude_Frioux
Marc Fumaroli,scholar,1932.0,Marseille,43.282,5.405,13,Bouches-du-Rhône,Provence-Alpes-Côte d'Azur,https://fr.wikipedia.org/wiki/Marc_Fumaroli
Françoise Gaill,scholar,1948.0,Paris,48.859,2.347,75,Paris,Île-de-France,https://fr.wikipedia.org/wiki/Fran%C3%A7oise_Gaill
Jacques Gagey (universitaire),scholar,1923.0,Besançon,47.251938,6.001699,25,Doubs,Bourgogne-Franche-Comté,https://fr.wikipedia.org/wiki/Jacques_Gagey_(universitaire)
Jacques Gandouin,scholar,1920.0,Paris 17,48.887702,2.304844,75,Paris,Île-de-France,https://fr.wikipedia.org/wiki/Jacques_Gandouin
Xavier Galmiche,scholar,1963.0,Nancy,48.688135,6.171263,54,Meurthe-et-Moselle,Grand Est,https://fr.wikipedia.org/wiki/Xavier_Galmiche
Maurice de Gandillac,scholar,1906.0,Koléa,48.445939,-3.062909,22,Côtes-d'Armor,Bretagne,https://fr.wikipedia.org/wiki/Maurice_de_Gandillac
Joëlle Gardes,scholar,1945.0,Marseille,43.282,5.405,13,Bouches-du-Rhône,Provence-Alpes-Côte d'Azur,https://fr.wikipedia.org/wiki/Jo%C3%ABlle_Gardes
Émile Garçon,scholar,1851.0,Poitiers,46.586578,0.35668,86,Vienne,Nouvelle-Aquitaine,https://fr.wikipedia.org/wiki/%C3%89mile_Gar%C3%A7on
Dominique Garcia,scholar,1962.0,Clermont-l'Hérault,43.625912,3.434565,34,Hérault,Occitanie,https://fr.wikipedia.org/wiki/Dominique_Garcia
Jacques Garello,scholar,1934.0,Puget-sur-Argens,43.470449,6.685531,83,Var,Provence-Alpes-Côte d'Azur,https://fr.wikipedia.org/wiki/Jacques_Garello
René Garraud,scholar,1849.0,Lot-et-Garonne,47.795789,7.176422,68,Haut-Rhin,Grand Est,https://fr.wikipedia.org/wiki/Ren%C3%A9_Garraud
Jean Gaudemet,scholar,1908.0,Dijon,47.331848,5.033601,21,Côte-d'Or,Bourgogne-Franche-Comté,https://fr.wikipedia.org/wiki/Jean_Gaudemet
Eugène Gaudemet,scholar,1872.0,Vosne-Romanée,47.157389,4.959948,21,Côte-d'Or,Bourgogne-Franche-Comté,https://fr.wikipedia.org/wiki/Eug%C3%A8ne_Gaudemet
Paul Marie Gaudemet,scholar,1914.0,Dijon,47.331848,5.033601,21,Côte-d'Or,Bourgogne-Franche-Comté,https://fr.wikipedia.org/wiki/Paul_Marie_Gaudemet
Marcel Gauchet,scholar,1946.0,Poilley,48.618714,-1.319372,50,Manche,Normandie,https://fr.wikipedia.org/wiki/Marcel_Gauchet
Gilbert Gidel,scholar,1880.0,Unknown,,,,,,https://fr.wikipedia.org/wiki/Gilbert_Gidel
Jean Antoine Gili,scholar,1938.0,Nice,43.71273,7.25092,06,Alpes-Maritimes,Provence-Alpes-Côte d'Azur,https://fr.wikipedia.org/wiki/Jean_Antoine_Gili
Yves Gaudemet,scholar,1946.0,Paris 15,48.84162,2.295289,75,Paris,Île-de-France,https://fr.wikipedia.org/wiki/Yves_Gaudemet
Michel Germain (professeur),scholar,1947.0,Celsa,,,,,,https://fr.wikipedia.org/wiki/Michel_Germain_(professeur)
Jean-Pierre Giran,scholar,1947.0,Marseille,43.282,5.405,13,Bouches-du-Rhône,Provence-Alpes-Côte d'Azur,https://fr.wikipedia.org/wiki/Jean-Pierre_Giran
Victor Giraud,scholar,1868.0,Mâcon,46.325859,4.810979,71,Saône-et-Loire,Bourgogne-Franche-Comté,https://fr.wikipedia.org/wiki/Victor_Giraud
Hubert Girault,scholar,1957.0,Saint-Maur-des-Fossés,48.799943,2.491801,94,Val-de-Marne,Île-de-France,https://fr.wikipedia.org/wiki/Hubert_Girault
Louis Glangeaud,scholar,1903.0,Tulle,45.267177,1.764073,19,Corrèze,Nouvelle-Aquitaine,https://fr.wikipedia.org/wiki/Louis_Glangeaud
Adrien Goetz,scholar,1966.0,Caen au XXe siècle,49.187145,-0.371531,14,Calvados,Normandie,https://fr.wikipedia.org/wiki/Adrien_Goetz
Ivan Gobry,scholar,1927.0,Saint-André-les-Verge,48.277223,4.050881,10,Aube,Grand Est,https://fr.wikipedia.org/wiki/Ivan_Gobry
Nicole Gnesotto,scholar,1954.0,Fort-de-France,14.636435,-61.064096,972,Martinique,,https://fr.wikipedia.org/wiki/Nicole_Gnesotto
Victor Goldschmidt (philosophe),scholar,1914.0,Berlin,43.247769,1.383602,09,Ariège,Occitanie,https://fr.wikipedia.org/wiki/Victor_Goldschmidt_(philosophe)
Bernard Gorceix,scholar,1937.0,Poitiers,46.586578,0.35668,86,Vienne,Nouvelle-Aquitaine,https://fr.wikipedia.org/wiki/Bernard_Gorceix
Henri Gouhier,scholar,1898.0,Auxerre,47.791247,3.579905,89,Yonne,Bourgogne-Franche-Comté,https://fr.wikipedia.org/wiki/Henri_Gouhier
Gérard Gouiran,scholar,1945.0,Rove,42.72124,9.453569,2B,Haute-Corse,Corse,https://fr.wikipedia.org/wiki/G%C3%A9rard_Gouiran
Jean-Paul Goujon,scholar,1949.0,Unknown,,,,,,https://fr.wikipedia.org/wiki/Jean-Paul_Goujon
Jacques Gonnet,scholar,1945.0,Carpentras,44.062749,5.057038,84,Vaucluse,Provence-Alpes-Côte d'Azur,https://fr.wikipedia.org/wiki/Jacques_Gonnet
Simone Goyard-Fabre,scholar,1927.0,Montier-en-Der,48.482019,4.772065,52,Haute-Marne,Grand Est,https://fr.wikipedia.org/wiki/Simone_Goyard-Fabre
Jean Goulemot,scholar,1937.0,Granville,47.799428,-2.15447,56,Morbihan,Bretagne,https://fr.wikipedia.org/wiki/Jean_Goulemot
Christian Gouriéroux,scholar,1949.0,Centre de recherche e,-22.269616,166.472587,988,Nouvelle-Calédonie,,https://fr.wikipedia.org/wiki/Christian_Gouri%C3%A9roux
Jean-Paul Goux,scholar,1948.0,Vesoul,47.628692,6.157979,70,Haute-Saône,Bourgogne-Franche-Comté,https://fr.wikipedia.org/wiki/Jean-Paul_Goux
Henri Graillot,scholar,1868.0,Autun,46.938842,4.304399,71,Saône-et-Loire,Bourgogne-Franche-Comté,https://fr.wikipedia.org/wiki/Henri_Graillot
Philippe Greffet,scholar,1924.0,Lyon le 22 mars 1924,43.331419,5.364735,13,Bouches-du-Rhône,Provence-Alpes-Côte d'Azur,https://fr.wikipedia.org/wiki/Philippe_Greffet
Pierre Grappin,scholar,1915.0,Coussey,48.407498,5.685805,88,Vosges,Grand Est,https://fr.wikipedia.org/wiki/Pierre_Grappin
Gérard Grellet,scholar,1946.0,Unknown,,,,,,https://fr.wikipedia.org/wiki/G%C3%A9rard_Grellet
Pierre Grégory,scholar,1945.0,Figeac,44.609226,2.02419,46,Lot,Occitanie,https://fr.wikipedia.org/wiki/Pierre_Gr%C3%A9gory
François Grimal,scholar,1945.0,Caen au XXe siècle,49.187145,-0.371531,14,Calvados,Normandie,https://fr.wikipedia.org/wiki/Fran%C3%A7ois_Grimal
Frantz Grenet,scholar,1952.0,Gruchet-le-Valasse,49.551491,0.492499,76,Seine-Maritime,Normandie,https://fr.wikipedia.org/wiki/Frantz_Grenet
Daniel Grojnowski,scholar,1936.0,Unknown,,,,,,https://fr.wikipedia.org/wiki/Daniel_Grojnowski
Nicolas Grimal,scholar,1948.0,Libourne,44.920384,-0.226836,33,Gironde,Nouvelle-Aquitaine,https://fr.wikipedia.org/wiki/Nicolas_Grimal
Pierre Grimal,scholar,1912.0,Paris 15,48.84162,2.295289,75,Paris,Île-de-France,https://fr.wikipedia.org/wiki/Pierre_Grimal
Stéphane Gsell,scholar,1864.0,Paris 11,48.860162,2.381844,75,Paris,Île-de-France,https://fr.wikipedia.org/wiki/St%C3%A9phane_Gsell
Frédéric Grolleau,scholar,1969.0,Épinal,48.170226,6.484892,88,Vosges,Grand Est,https://fr.wikipedia.org/wiki/Fr%C3%A9d%C3%A9ric_Grolleau
François Gros (biologiste),scholar,1925.0,Paris 17,48.887702,2.304844,75,Paris,Île-de-France,https://fr.wikipedia.org/wiki/Fran%C3%A7ois_Gros_(biologiste)
Serge Guérin,scholar,1962.0,Unknown,,,,,,https://fr.wikipedia.org/wiki/Serge_Gu%C3%A9rin
Yves Guchet,scholar,1938.0,Nantes,47.239367,-1.555335,44,Loire-Atlantique,Pays de la Loire,https://fr.wikipedia.org/wiki/Yves_Guchet
Philippe Guignet,scholar,1948.0,Unknown,,,,,,https://fr.wikipedia.org/wiki/Philippe_Guignet
Henri Groussau,scholar,1851.0,Charente-Inférieure,45.653862,0.513553,16,Charente,Nouvelle-Aquitaine,https://fr.wikipedia.org/wiki/Henri_Groussau
Roger Guesnerie,scholar,1943.0,Sainte-Gemmes-le-Robe,48.202085,-0.370122,53,Mayenne,Pays de la Loire,https://fr.wikipedia.org/wiki/Roger_Guesnerie
Pierre Guiraud,scholar,1912.0,Sfax,49.266749,4.054452,51,Marne,Grand Est,https://fr.wikipedia.org/wiki/Pierre_Guiraud
Jacques Guigou,scholar,1941.0,Guéret,46.171794,1.874985,23,Creuse,Nouvelle-Aquitaine,https://fr.wikipedia.org/wiki/Jacques_Guigou
Mireille Hadas-Lebel,scholar,1940.0,Tunisie,48.595812,-3.815715,29,Finistère,Bretagne,https://fr.wikipedia.org/wiki/Mireille_Hadas-Lebel
Claude Hagège,scholar,1936.0,Carthage,46.522289,0.454441,86,Vienne,Nouvelle-Aquitaine,https://fr.wikipedia.org/wiki/Claude_Hag%C3%A8ge
Jean Hani,scholar,1917.0,Seine-et-Oise,49.003436,2.080953,78,Yvelines,Île-de-France,https://fr.wikipedia.org/wiki/Jean_Hani
Maurice Hauriou,scholar,1856.0,Charente,43.583418,1.408267,31,Haute-Garonne,Occitanie,https://fr.wikipedia.org/wiki/Maurice_Hauriou
Michel Herland,scholar,1945.0,Toulouse,43.604082,1.433805,31,Haute-Garonne,Occitanie,https://fr.wikipedia.org/wiki/Michel_Herland
Maurice-Ruben Hayoun,scholar,1950.0,Agadir,50.948783,1.836396,62,Pas-de-Calais,Hauts-de-France,https://fr.wikipedia.org/wiki/Maurice-Ruben_Hayoun
François Hartog,scholar,1946.0,Albertville,45.671004,6.396774,73,Savoie,Auvergne-Rhône-Alpes,https://fr.wikipedia.org/wiki/Fran%C3%A7ois_Hartog
Bertrand Herz,scholar,1930.0,Paris 18,48.896214,2.362997,75,Paris,Île-de-France,https://fr.wikipedia.org/wiki/Bertrand_Herz
Alphonse Herrgott,scholar,1849.0,Belfort,14.647746,-61.004454,972,Martinique,,https://fr.wikipedia.org/wiki/Alphonse_Herrgott
Pierre-Yves Hénin,scholar,1946.0,Saône-et-Loire,,,,,,https://fr.wikipedia.org/wiki/Pierre-Yves_H%C3%A9nin
Alexandre Herlea,scholar,1942.0,Brașov,,,,,,https://fr.wikipedia.org/wiki/Alexandre_Herlea
Philippe Hoffmann,scholar,1953.0,Paris,48.859,2.347,75,Paris,Île-de-France,https://fr.wikipedia.org/wiki/Philippe_Hoffmann
Mireille Huchon,scholar,,Unknown,,,,,,https://fr.wikipedia.org/wiki/Mireille_Huchon
Olivier Houdé,scholar,1963.0,Bruxelles au XXe siècle,49.005366,-0.390065,14,Calvados,Normandie,https://fr.wikipedia.org/wiki/Olivier_Houd%C3%A9
Isabelle Huault,scholar,1967.0,Lyon,45.758,4.835,69,Rhône,Auvergne-Rhône-Alpes,https://fr.wikipedia.org/wiki/Isabelle_Huault
Marie-Hélène Huet,scholar,,Unknown,,,,,,https://fr.wikipedia.org/wiki/Marie-H%C3%A9l%C3%A8ne_Huet
René Huchon,scholar,1872.0,Paris 7,48.853954,2.312864,75,Paris,Île-de-France,https://fr.wikipedia.org/wiki/Ren%C3%A9_Huchon
Jean-Jacques Hublin,scholar,1953.0,Mostaganem,48.012277,0.228402,72,Sarthe,Pays de la Loire,https://fr.wikipedia.org/wiki/Jean-Jacques_Hublin
François Icher,scholar,1958.0,Unknown,,,,,,https://fr.wikipedia.org/wiki/Fran%C3%A7ois_Icher
Józef Hurwic,scholar,1911.0,Varsovie,43.596489,1.430218,31,Haute-Garonne,Occitanie,https://fr.wikipedia.org/wiki/J%C3%B3zef_Hurwic
John Humbley,scholar,1945.0,Sydney,47.546767,1.962217,41,Loir-et-Cher,Centre-Val de Loire,https://fr.wikipedia.org/wiki/John_Humbley
Frédéric Imbert,scholar,1963.0,Unknown,,,,,,https://fr.wikipedia.org/wiki/Fr%C3%A9d%C3%A9ric_Imbert
Hervé Inglebert,scholar,1960.0,Tourcoing,50.720797,3.157799,59,Nord,Hauts-de-France,https://fr.wikipedia.org/wiki/Herv%C3%A9_Inglebert
Christian Jambet,scholar,1949.0,Alger,48.334676,-0.546793,53,Mayenne,Pays de la Loire,https://fr.wikipedia.org/wiki/Christian_Jambet
Jacques Igalens,scholar,1950.0,Montauban,16.210225,-61.499535,971,Guadeloupe,,https://fr.wikipedia.org/wiki/Jacques_Igalens
François Jacques (historien),scholar,1946.0,Fussy,47.186788,3.664458,58,Nièvre,Bourgogne-Franche-Comté,https://fr.wikipedia.org/wiki/Fran%C3%A7ois_Jacques_(historien)
Laurent Jaffro,scholar,1963.0,Clermont-Ferrand,45.786671,3.107055,63,Puy-de-Dôme,Auvergne-Rhône-Alpes,https://fr.wikipedia.org/wiki/Laurent_Jaffro
Vladimir Jankélévitch,scholar,1903.0,Bourges,42.962755,1.861999,09,Ariège,Occitanie,https://fr.wikipedia.org/wiki/Vladimir_Jank%C3%A9l%C3%A9vitch
Chantal Jaquet,scholar,1956.0,Unknown,,,,,,https://fr.wikipedia.org/wiki/Chantal_Jaquet
Pascal Jan,scholar,1967.0,Tours,47.395476,0.695848,37,Indre-et-Loire,Centre-Val de Loire,https://fr.wikipedia.org/wiki/Pascal_Jan
Maryse Jaspard,scholar,1945.0,Unknown,,,,,,https://fr.wikipedia.org/wiki/Maryse_Jaspard
Alfred Jauffret,scholar,1900.0,Aix-en-Provence,43.541369,5.406124,13,Bouches-du-Rhône,Provence-Alpes-Côte d'Azur,https://fr.wikipedia.org/wiki/Alfred_Jauffret
Gaston Jèze,scholar,1869.0,Toulouse,43.604082,1.433805,31,Haute-Garonne,Occitanie,https://fr.wikipedia.org/wiki/Gaston_J%C3%A8ze
Frédéric Jenny,scholar,1943.0,Genève,47.21202,-1.60215,44,Loire-Atlantique,Pays de la Loire,https://fr.wikipedia.org/wiki/Fr%C3%A9d%C3%A9ric_Jenny
Marc Jimenez,scholar,1943.0,Paris 15,48.84162,2.295289,75,Paris,Île-de-France,https://fr.wikipedia.org/wiki/Marc_Jimenez
Jean-Paul Jourdan,scholar,1956.0,Unknown,,,,,,https://fr.wikipedia.org/wiki/Jean-Paul_Jourdan
Isaac Joseph,scholar,1943.0,Caire,43.247401,2.07783,11,Aude,Occitanie,https://fr.wikipedia.org/wiki/Isaac_Joseph
Martine Joly,scholar,1943.0,Vichy,46.131168,3.428025,03,Allier,Auvergne-Rhône-Alpes,https://fr.wikipedia.org/wiki/Martine_Joly
Jacques Jouanna,scholar,1935.0,Nancy,48.688135,6.171263,54,Meurthe-et-Moselle,Grand Est,https://fr.wikipedia.org/wiki/Jacques_Jouanna
François Jullien,scholar,1951.0,Embrun (Hautes-Alpes),44.602963,6.519088,05,Hautes-Alpes,Provence-Alpes-Côte d'Azur,https://fr.wikipedia.org/wiki/Fran%C3%A7ois_Jullien
Hubert Julien-Laferrière,scholar,1966.0,Boulogne-Billancourt,48.837799,2.243202,92,Hauts-de-Seine,Île-de-France,https://fr.wikipedia.org/wiki/Hubert_Julien-Laferri%C3%A8re
Bertrand de Jouvenel,scholar,1903.0,Paris 9,48.87727,2.33371,75,Paris,Île-de-France,https://fr.wikipedia.org/wiki/Bertrand_de_Jouvenel
Edmond Jouve,scholar,1937.0,Nadaillac-de-Rouge,44.850169,1.43119,46,Lot,Occitanie,https://fr.wikipedia.org/wiki/Edmond_Jouve
Michel Kasser,scholar,1953.0,Lausanne,47.043244,1.182838,37,Indre-et-Loire,Centre-Val de Loire,https://fr.wikipedia.org/wiki/Michel_Kasser
Samir Kassir,scholar,1960.0,Beyrouth,43.246632,5.401532,13,Bouches-du-Rhône,Provence-Alpes-Côte d'Azur,https://fr.wikipedia.org/wiki/Samir_Kassir
Michel Kaplan,scholar,1946.0,Neuilly-sur-Seine,48.886191,2.265869,92,Hauts-de-Seine,Île-de-France,https://fr.wikipedia.org/wiki/Michel_Kaplan
Francine Kaufmann,scholar,1947.0,Paris 19,48.888949,2.396993,75,Paris,Île-de-France,https://fr.wikipedia.org/wiki/Francine_Kaufmann
Piotr Kowalski,scholar,1927.0,Lviv,14.844837,-61.087033,972,Martinique,,https://fr.wikipedia.org/wiki/Piotr_Kowalski
François Kraut,scholar,1907.0,Autriche-Hongrie,44.943223,4.833389,07,Ardèche,Auvergne-Rhône-Alpes,https://fr.wikipedia.org/wiki/Fran%C3%A7ois_Kraut
Gilles Kepel,scholar,1955.0,Paris,48.859,2.347,75,Paris,Île-de-France,https://fr.wikipedia.org/wiki/Gilles_Kepel
Angèle Kremer-Marietti,scholar,1927.0,Paris 10,48.88143,2.366774,75,Paris,Île-de-France,https://fr.wikipedia.org/wiki/Ang%C3%A8le_Kremer-Marietti
Georges Kuhnholtz-Lordat,scholar,1888.0,Montpellier,43.610476,3.87048,34,Hérault,Occitanie,https://fr.wikipedia.org/wiki/Georges_Kuhnholtz-Lordat
Michèle Laforest,scholar,1927.0,Guéret,46.171794,1.874985,23,Creuse,Nouvelle-Aquitaine,https://fr.wikipedia.org/wiki/Mich%C3%A8le_Laforest
René de Lacharrière,scholar,1915.0,Coux (Ardèche),45.321639,-0.409436,17,Charente-Maritime,Nouvelle-Aquitaine,https://fr.wikipedia.org/wiki/Ren%C3%A9_de_Lacharri%C3%A8re
Juliette de La Genière,scholar,1927.0,Mulhouse,47.749509,7.36973,68,Haut-Rhin,Grand Est,https://fr.wikipedia.org/wiki/Juliette_de_La_Geni%C3%A8re
Pierre Laborie,scholar,1936.0,Bagnac-sur-Célé,44.662987,2.148639,46,Lot,Occitanie,https://fr.wikipedia.org/wiki/Pierre_Laborie
Mathilde Laigle,scholar,1865.0,Vandoncourt et morte,47.466369,6.902945,25,Doubs,Bourgogne-Franche-Comté,https://fr.wikipedia.org/wiki/Mathilde_Laigle
Rose-Marie Lagrave,scholar,1944.0,Normandie,48.323428,-2.743583,22,Côtes-d'Armor,Bretagne,https://fr.wikipedia.org/wiki/Rose-Marie_Lagrave
Sylvie Lainé,scholar,1957.0,Saint-Lô,49.113843,-1.080182,50,Manche,Normandie,https://fr.wikipedia.org/wiki/Sylvie_Lain%C3%A9
Serge Lancel,scholar,1928.0,La Havane,47.22021,-1.536768,44,Loire-Atlantique,Pays de la Loire,https://fr.wikipedia.org/wiki/Serge_Lancel
Bertrand Lançon,scholar,1952.0,Mans,47.993378,0.191169,72,Sarthe,Pays de la Loire,https://fr.wikipedia.org/wiki/Bertrand_Lan%C3%A7on
Nadeije Laneyrie-Dagen,scholar,1957.0,Unknown,,,,,,https://fr.wikipedia.org/wiki/Nadeije_Laneyrie-Dagen
Henri Laoust,scholar,1905.0,Fresnes-sur-Escaut,50.433148,3.574831,59,Nord,Hauts-de-France,https://fr.wikipedia.org/wiki/Henri_Laoust
Paul Larivaille,scholar,1932.0,Saint-Étienne-de-Furs,46.119924,1.508762,23,Creuse,Nouvelle-Aquitaine,https://fr.wikipedia.org/wiki/Paul_Larivaille
André Laronde,scholar,1940.0,Grenoble,45.182828,5.724369,38,Isère,Auvergne-Rhône-Alpes,https://fr.wikipedia.org/wiki/Andr%C3%A9_Laronde
Henri Laugier,scholar,1888.0,Mane (Alpes-de-Haute-Provence),44.59619,6.08892,05,Hautes-Alpes,Provence-Alpes-Côte d'Azur,https://fr.wikipedia.org/wiki/Henri_Laugier
Jean-François Laslier,scholar,1959.0,Alger,48.334676,-0.546793,53,Mayenne,Pays de la Loire,https://fr.wikipedia.org/wiki/Jean-Fran%C3%A7ois_Laslier
Bruno Latour,scholar,1947.0,Beaune,47.025352,4.840893,21,Côte-d'Or,Bourgogne-Franche-Comté,https://fr.wikipedia.org/wiki/Bruno_Latour
Sandra Laugier,scholar,1961.0,Paris 1,48.86832,2.326079,75,Paris,Île-de-France,https://fr.wikipedia.org/wiki/Sandra_Laugier
Pierre Laurens,scholar,1931.0,Tarbes,43.239349,0.06402,65,Hautes-Pyrénées,Occitanie,https://fr.wikipedia.org/wiki/Pierre_Laurens
Henry Laurens,scholar,1954.0,Neuilly-sur-Seine,48.886191,2.265869,92,Hauts-de-Seine,Île-de-France,https://fr.wikipedia.org/wiki/Henry_Laurens
Michel Laurent (universitaire),scholar,1953.0,Viêt Nam,45.399016,5.271689,38,Isère,Auvergne-Rhône-Alpes,https://fr.wikipedia.org/wiki/Michel_Laurent_(universitaire)
Claude Lauriol,scholar,1932.0,Nîmes,43.814652,4.356289,30,Gard,Occitanie,https://fr.wikipedia.org/wiki/Claude_Lauriol
Gérard Leblanc,scholar,1942.0,Unknown,,,,,,https://fr.wikipedia.org/wiki/G%C3%A9rard_Leblanc
Ernest Lavisse,scholar,1842.0,Nouvion-en-Thiérache,50.015679,3.783505,02,Aisne,Hauts-de-France,https://fr.wikipedia.org/wiki/Ernest_Lavisse
Jean-Yves Le Drian,scholar,1947.0,Lorient,47.750364,-3.378025,56,Morbihan,Bretagne,https://fr.wikipedia.org/wiki/Jean-Yves_Le_Drian
Yann Le Bohec,scholar,1943.0,Carthage,46.522289,0.454441,86,Vienne,Nouvelle-Aquitaine,https://fr.wikipedia.org/wiki/Yann_Le_Bohec
Marc Le Bot,scholar,1921.0,Combrit le 9 septembr,47.885708,-4.17194,29,Finistère,Bretagne,https://fr.wikipedia.org/wiki/Marc_Le_Bot
Nicole Le Douarin,scholar,1930.0,Lorient,47.750364,-3.378025,56,Morbihan,Bretagne,https://fr.wikipedia.org/wiki/Nicole_Le_Douarin
Gilles Lebreton,scholar,1958.0,Brest,48.406435,-4.497736,29,Finistère,Bretagne,https://fr.wikipedia.org/wiki/Gilles_Lebreton
Raymond-François Le Bris,scholar,1935.0,Gouesnou,48.443343,-4.462844,29,Finistère,Bretagne,https://fr.wikipedia.org/wiki/Raymond-Fran%C3%A7ois_Le_Bris
Jean Leclant,scholar,1920.0,Paris 14,48.830108,2.323026,75,Paris,Île-de-France,https://fr.wikipedia.org/wiki/Jean_Leclant
Georges Le Gentil,scholar,1875.0,Fère-Champenoise et m,48.758005,3.9976,51,Marne,Grand Est,https://fr.wikipedia.org/wiki/Georges_Le_Gentil
Joseph Lefftz,scholar,1888.0,Obernai,48.462885,7.468147,67,Bas-Rhin,Grand Est,https://fr.wikipedia.org/wiki/Joseph_Lefftz
Jacques Le Goff,scholar,1924.0,Toulon,43.136379,5.933443,83,Var,Provence-Alpes-Côte d'Azur,https://fr.wikipedia.org/wiki/Jacques_Le_Goff
Marc Le Menestrel,scholar,1967.0,Unknown,,,,,,https://fr.wikipedia.org/wiki/Marc_Le_Menestrel
Jean-Pierre Leguay (historien),scholar,1938.0,Canisy,49.07748,-1.159114,50,Manche,Normandie,https://fr.wikipedia.org/wiki/Jean-Pierre_Leguay_(historien)
Pierre Léna,scholar,1937.0,Paris,48.859,2.347,75,Paris,Île-de-France,https://fr.wikipedia.org/wiki/Pierre_L%C3%A9na
Jean Lenègre,scholar,1904.0,Unknown,,,,,,https://fr.wikipedia.org/wiki/Jean_Len%C3%A8gre
Claude Lepelley,scholar,1934.0,Charenton-le-Pont,48.823948,2.407129,94,Val-de-Marne,Île-de-France,https://fr.wikipedia.org/wiki/Claude_Lepelley
Alain Leroux,scholar,1945.0,Unknown,,,,,,https://fr.wikipedia.org/wiki/Alain_Leroux
André Leroi-Gourhan,scholar,1911.0,Paris 11,48.860162,2.381844,75,Paris,Île-de-France,https://fr.wikipedia.org/wiki/Andr%C3%A9_Leroi-Gourhan
Yves Lequette,scholar,1946.0,Neuilly-sur-Seine,48.886191,2.265869,92,Hauts-de-Seine,Île-de-France,https://fr.wikipedia.org/wiki/Yves_Lequette
Emmanuel Le Roy Ladurie,scholar,1929.0,Moutiers-en-Cinglais,49.029857,-0.428608,14,Calvados,Normandie,https://fr.wikipedia.org/wiki/Emmanuel_Le_Roy_Ladurie
Claude B. Levenson,scholar,1938.0,Paris 14,48.830108,2.323026,75,Paris,Île-de-France,https://fr.wikipedia.org/wiki/Claude_B._Levenson
Jean Lescoffier,scholar,1875.0,Jorxey,48.30308,6.238888,88,Vosges,Grand Est,https://fr.wikipedia.org/wiki/Jean_Lescoffier
Constantin Levaditi,scholar,1874.0,Galați,45.801003,4.818863,69,Rhône,Auvergne-Rhône-Alpes,https://fr.wikipedia.org/wiki/Constantin_Levaditi
Claude Lévi-Strauss,scholar,1908.0,Bruxelles au XXe siècle,49.005366,-0.390065,14,Calvados,Normandie,https://fr.wikipedia.org/wiki/Claude_L%C3%A9vi-Strauss
Maurice Lever,scholar,1935.0,Neuilly-sur-Seine,48.886191,2.265869,92,Hauts-de-Seine,Île-de-France,https://fr.wikipedia.org/wiki/Maurice_Lever
Jean Levi,scholar,1948.0,Chine ancienne,46.137805,6.009895,74,Haute-Savoie,Auvergne-Rhône-Alpes,https://fr.wikipedia.org/wiki/Jean_Levi
Alain de Libera,scholar,1948.0,Neuilly-sur-Seine,48.886191,2.265869,92,Hauts-de-Seine,Île-de-France,https://fr.wikipedia.org/wiki/Alain_de_Libera
Michel Leymarie,scholar,1951.0,Histoire,47.229116,-1.614782,44,Loire-Atlantique,Pays de la Loire,https://fr.wikipedia.org/wiki/Michel_Leymarie
Carlos Lévy,scholar,1949.0,Tanger,48.886757,2.36956,75,Paris,Île-de-France,https://fr.wikipedia.org/wiki/Carlos_L%C3%A9vy
Pierre-André Liégé,scholar,1921.0,Haute-Marne,48.113146,7.416151,68,Haut-Rhin,Grand Est,https://fr.wikipedia.org/wiki/Pierre-Andr%C3%A9_Li%C3%A9g%C3%A9
Louis Lliboutry,scholar,1922.0,Madrid,45.562042,-0.207448,16,Charente,Nouvelle-Aquitaine,https://fr.wikipedia.org/wiki/Louis_Lliboutry
Maurice Lombard (historien),scholar,1904.0,Azzaba,42.117543,8.926828,2A,Corse-du-Sud,Corse,https://fr.wikipedia.org/wiki/Maurice_Lombard_(historien)
Claude Longeon,scholar,1941.0,Saint-Étienne,45.430195,4.370045,42,Loire,Auvergne-Rhône-Alpes,https://fr.wikipedia.org/wiki/Claude_Longeon
Henri-Jacques Lucas,scholar,1939.0,Meknès,43.31365,5.454245,13,Bouches-du-Rhône,Provence-Alpes-Côte d'Azur,https://fr.wikipedia.org/wiki/Henri-Jacques_Lucas
Antoine Lyon-Caen,scholar,1948.0,Unknown,,,,,,https://fr.wikipedia.org/wiki/Antoine_Lyon-Caen
Jean-François Lyotard,scholar,1924.0,Versailles,48.803019,2.131319,78,Yvelines,Île-de-France,https://fr.wikipedia.org/wiki/Jean-Fran%C3%A7ois_Lyotard
François Luchaire,scholar,1919.0,La Rochelle,47.984627,-1.65389,35,Ille-et-Vilaine,Bretagne,https://fr.wikipedia.org/wiki/Fran%C3%A7ois_Luchaire
Michel Machebœuf,scholar,1900.0,Châtel-Guyon,45.921997,3.060949,63,Puy-de-Dôme,Auvergne-Rhône-Alpes,https://fr.wikipedia.org/wiki/Michel_Macheb%C5%93uf
Pierre Magnard,scholar,1927.0,Casablanca,43.663279,-1.288498,40,Landes,Nouvelle-Aquitaine,https://fr.wikipedia.org/wiki/Pierre_Magnard
Jean-Pierre Mahé,scholar,1944.0,Paris,48.859,2.347,75,Paris,Île-de-France,https://fr.wikipedia.org/wiki/Jean-Pierre_Mah%C3%A9
Claude-Edmonde Magny,scholar,1913.0,Haute-Saône,47.473904,5.379161,21,Côte-d'Or,Bourgogne-Franche-Comté,https://fr.wikipedia.org/wiki/Claude-Edmonde_Magny
Alain Mabanckou,scholar,1966.0,Pointe-Noire (république du Congo),16.233962,-61.790052,971,Guadeloupe,,https://fr.wikipedia.org/wiki/Alain_Mabanckou
Michel Malherbe (philosophe),scholar,1941.0,Unknown,,,,,,https://fr.wikipedia.org/wiki/Michel_Malherbe_(philosophe)
Georges Mailhos,scholar,1932.0,Mont-de-Marsan au XXe siècle,43.603358,3.918789,34,Hérault,Occitanie,https://fr.wikipedia.org/wiki/Georges_Mailhos
Léon Malaprade,scholar,1903.0,Dieppe (Seine-Maritime),49.478927,1.047849,76,Seine-Maritime,Normandie,https://fr.wikipedia.org/wiki/L%C3%A9on_Malaprade
Alain Malissard,scholar,1936.0,Châlette-sur-Loing et,48.019121,2.720474,45,Loiret,Centre-Val de Loire,https://fr.wikipedia.org/wiki/Alain_Malissard
André Mandelstam,scholar,1869.0,Moguilev,45.762494,4.877964,69,Rhône,Auvergne-Rhône-Alpes,https://fr.wikipedia.org/wiki/Andr%C3%A9_Mandelstam
André Mandouze,scholar,1916.0,Bordeaux,44.851897,-0.587877,33,Gironde,Nouvelle-Aquitaine,https://fr.wikipedia.org/wiki/Andr%C3%A9_Mandouze
Vincent Mangematin,scholar,1965.0,Lyon,45.758,4.835,69,Rhône,Auvergne-Rhône-Alpes,https://fr.wikipedia.org/wiki/Vincent_Mangematin
Szolem Mandelbrojt,scholar,1899.0,Varsovie,43.596489,1.430218,31,Haute-Garonne,Occitanie,https://fr.wikipedia.org/wiki/Szolem_Mandelbrojt
Pierre Maraval,scholar,1936.0,Roquecourbe le 31 aoû,43.663669,2.292144,81,Tarn,Occitanie,https://fr.wikipedia.org/wiki/Pierre_Maraval
Joachim Marcus-Steiff,scholar,1928.0,Berlin,43.247769,1.383602,09,Ariège,Occitanie,https://fr.wikipedia.org/wiki/Joachim_Marcus-Steiff
William Marçais,scholar,1872.0,Rennes,48.110899,-1.68365,35,Ille-et-Vilaine,Bretagne,https://fr.wikipedia.org/wiki/William_Mar%C3%A7ais
Georges Marçais,scholar,1876.0,Rennes,48.110899,-1.68365,35,Ille-et-Vilaine,Bretagne,https://fr.wikipedia.org/wiki/Georges_Mar%C3%A7ais
Henri-Irénée Marrou,scholar,1977.0,Marseille,43.282,5.405,13,Bouches-du-Rhône,Provence-Alpes-Côte d'Azur,https://fr.wikipedia.org/wiki/Henri-Ir%C3%A9n%C3%A9e_Marrou
Jean-Claude Margolin,scholar,1923.0,Paris 10,48.88143,2.366774,75,Paris,Île-de-France,https://fr.wikipedia.org/wiki/Jean-Claude_Margolin
Mireille Martin-Deschamps,scholar,,Unknown,,,,,,https://fr.wikipedia.org/wiki/Mireille_Martin-Deschamps
Jean-Marie Martin (historien),scholar,1938.0,Boulogne-Billancourt,48.837799,2.243202,92,Hauts-de-Seine,Île-de-France,https://fr.wikipedia.org/wiki/Jean-Marie_Martin_(historien)
Denis-Constant Martin,scholar,1947.0,Unknown,,,,,,https://fr.wikipedia.org/wiki/Denis-Constant_Martin
Pierre-Maurice Masson,scholar,1879.0,Metz,49.108385,6.194891,57,Moselle,Grand Est,https://fr.wikipedia.org/wiki/Pierre-Maurice_Masson
Jean-Clément Martin,scholar,1948.0,Thouars,46.981613,-0.233224,79,Deux-Sèvres,Nouvelle-Aquitaine,https://fr.wikipedia.org/wiki/Jean-Cl%C3%A9ment_Martin
Paul Mattei,scholar,1953.0,Marseille,43.282,5.405,13,Bouches-du-Rhône,Provence-Alpes-Côte d'Azur,https://fr.wikipedia.org/wiki/Paul_Mattei
Marie-Anne Matard-Bonucci,scholar,1960.0,Unknown,,,,,,https://fr.wikipedia.org/wiki/Marie-Anne_Matard-Bonucci
Florence de Mèredieu,scholar,1944.0,Unknown,,,,,,https://fr.wikipedia.org/wiki/Florence_de_M%C3%A8redieu
Charles Melchior de Molènes,scholar,1934.0,Unknown,,,,,,https://fr.wikipedia.org/wiki/Charles_Melchior_de_Mol%C3%A8nes
Didier Maus,scholar,1947.0,Boulogne-Billancourt,48.837799,2.243202,92,Hauts-de-Seine,Île-de-France,https://fr.wikipedia.org/wiki/Didier_Maus
Françoise Mélonio,scholar,1951.0,Algérie,48.880786,2.399826,75,Paris,Île-de-France,https://fr.wikipedia.org/wiki/Fran%C3%A7oise_M%C3%A9lonio
Marcel Merle,scholar,1923.0,Saumur,47.261814,-0.082764,49,Maine-et-Loire,Pays de la Loire,https://fr.wikipedia.org/wiki/Marcel_Merle
Henri Metzger,scholar,2007.0,La Tronche,45.469885,1.754407,19,Corrèze,Nouvelle-Aquitaine,https://fr.wikipedia.org/wiki/Henri_Metzger
Roland Meynet,scholar,1939.0,Unknown,,,,,,https://fr.wikipedia.org/wiki/Roland_Meynet
Jean Métral,scholar,1933.0,Haute-Savoie,48.43355,-4.627666,29,Finistère,Bretagne,https://fr.wikipedia.org/wiki/Jean_M%C3%A9tral
Pierre Mesnard,scholar,1900.0,Surgères,46.103571,-0.756848,17,Charente-Maritime,Nouvelle-Aquitaine,https://fr.wikipedia.org/wiki/Pierre_Mesnard
Dominique Michelet,scholar,1947.0,Unknown,,,,,,https://fr.wikipedia.org/wiki/Dominique_Michelet
Albert Michel-Lévy,scholar,1877.0,Autun,46.938842,4.304399,71,Saône-et-Loire,Bourgogne-Franche-Comté,https://fr.wikipedia.org/wiki/Albert_Michel-L%C3%A9vy
Yves Modéran,scholar,1955.0,Bachy et mort le 1er,,,,,,https://fr.wikipedia.org/wiki/Yves_Mod%C3%A9ran
André Miquel,scholar,1929.0,Mèze,43.435562,3.584267,34,Hérault,Occitanie,https://fr.wikipedia.org/wiki/Andr%C3%A9_Miquel
Robert Misrahi,scholar,1926.0,Paris 12,48.833494,2.415411,75,Paris,Île-de-France,https://fr.wikipedia.org/wiki/Robert_Misrahi
Émile Mireaux,scholar,1885.0,Mont-de-Marsan au XIXe siècle,44.0441,1.103216,82,Tarn-et-Garonne,Occitanie,https://fr.wikipedia.org/wiki/%C3%89mile_Mireaux
Paul Monceaux,scholar,1859.0,Auxerre,47.791247,3.579905,89,Yonne,Bourgogne-Franche-Comté,https://fr.wikipedia.org/wiki/Paul_Monceaux
Jacques Monférier,scholar,1933.0,Fougères,47.950339,-3.881992,29,Finistère,Bretagne,https://fr.wikipedia.org/wiki/Jacques_Monf%C3%A9rier
Alain Montandon,scholar,1945.0,Lyon,45.758,4.835,69,Rhône,Auvergne-Rhône-Alpes,https://fr.wikipedia.org/wiki/Alain_Montandon
Jean-Marie Moeglin,scholar,1955.0,Lille,50.630951,3.045391,59,Nord,Hauts-de-France,https://fr.wikipedia.org/wiki/Jean-Marie_Moeglin
Philippe Mongin,scholar,1950.0,Marseille,43.282,5.405,13,Bouches-du-Rhône,Provence-Alpes-Côte d'Azur,https://fr.wikipedia.org/wiki/Philippe_Mongin
Thierry de Montbrial,scholar,1943.0,Paris,48.859,2.347,75,Paris,Île-de-France,https://fr.wikipedia.org/wiki/Thierry_de_Montbrial
André Morali-Daninos,scholar,1909.0,Alger,48.334676,-0.546793,53,Mayenne,Pays de la Loire,https://fr.wikipedia.org/wiki/Andr%C3%A9_Morali-Daninos
Jean-Pierre Montier,scholar,1956.0,Saint-Malo,47.93902,-2.41155,56,Morbihan,Bretagne,https://fr.wikipedia.org/wiki/Jean-Pierre_Montier
Marcel Morabito,scholar,1951.0,Hyères,43.116731,6.20255,83,Var,Provence-Alpes-Côte d'Azur,https://fr.wikipedia.org/wiki/Marcel_Morabito
Bernard Morel (économiste),scholar,1946.0,Bihorel,49.462037,1.127533,76,Seine-Maritime,Normandie,https://fr.wikipedia.org/wiki/Bernard_Morel_(%C3%A9conomiste)
Edgar Morin,scholar,1921.0,Paris 9,48.87727,2.33371,75,Paris,Île-de-France,https://fr.wikipedia.org/wiki/Edgar_Morin
Cécile Morrisson,scholar,1940.0,Dinan,48.234562,-4.548457,29,Finistère,Bretagne,https://fr.wikipedia.org/wiki/C%C3%A9cile_Morrisson
Lucien Musset,scholar,1922.0,Rennes,48.110899,-1.68365,35,Ille-et-Vilaine,Bretagne,https://fr.wikipedia.org/wiki/Lucien_Musset
Hugues Moutouh,scholar,1967.0,Paris,48.859,2.347,75,Paris,Île-de-France,https://fr.wikipedia.org/wiki/Hugues_Moutouh
Pierre Muller (universitaire),scholar,1950.0,Baden-Baden,47.603402,-2.929574,56,Morbihan,Bretagne,https://fr.wikipedia.org/wiki/Pierre_Muller_(universitaire)
Jean-Pierre Nadal,scholar,1957.0,Paris,48.859,2.347,75,Paris,Île-de-France,https://fr.wikipedia.org/wiki/Jean-Pierre_Nadal
Jean-Luc Nancy,scholar,1940.0,Caudéran,44.845587,-0.613117,33,Gironde,Nouvelle-Aquitaine,https://fr.wikipedia.org/wiki/Jean-Luc_Nancy
Georges Nivat,scholar,1935.0,Clermont-Ferrand,45.786671,3.107055,63,Puy-de-Dôme,Auvergne-Rhône-Alpes,https://fr.wikipedia.org/wiki/Georges_Nivat
Erik Neveu,scholar,1952.0,Unknown,,,,,,https://fr.wikipedia.org/wiki/Erik_Neveu
Marie-Joseph Nicolas,scholar,1906.0,Fontenay-le-Comte,46.459821,-0.794159,85,Vendée,Pays de la Loire,https://fr.wikipedia.org/wiki/Marie-Joseph_Nicolas
Dominique Noguez,scholar,1942.0,Bolbec,49.575224,0.483302,76,Seine-Maritime,Normandie,https://fr.wikipedia.org/wiki/Dominique_Noguez
Pierre Nora,scholar,1931.0,Unknown,,,,,,https://fr.wikipedia.org/wiki/Pierre_Nora
Gérard Noiriel,scholar,1950.0,Nancy,48.688135,6.171263,54,Meurthe-et-Moselle,Grand Est,https://fr.wikipedia.org/wiki/G%C3%A9rard_Noiriel
Raymond Oursel,scholar,1921.0,Dijon,47.331848,5.033601,21,Côte-d'Or,Bourgogne-Franche-Comté,https://fr.wikipedia.org/wiki/Raymond_Oursel
Pierre Pachet,scholar,1937.0,Paris 16,48.856305,2.267032,75,Paris,Île-de-France,https://fr.wikipedia.org/wiki/Pierre_Pachet
Daniel-Henri Pageaux,scholar,1939.0,Unknown,,,,,,https://fr.wikipedia.org/wiki/Daniel-Henri_Pageaux
Pascal Ory,scholar,1948.0,Fougères,47.950339,-3.881992,29,Finistère,Bretagne,https://fr.wikipedia.org/wiki/Pascal_Ory
Jean de Palacio,scholar,1931.0,Paris 15,48.84162,2.295289,75,Paris,Île-de-France,https://fr.wikipedia.org/wiki/Jean_de_Palacio
Jean Paris,scholar,1921.0,Unknown,,,,,,https://fr.wikipedia.org/wiki/Jean_Paris
Catherine Paradeise,scholar,1946.0,Paris,48.859,2.347,75,Paris,Île-de-France,https://fr.wikipedia.org/wiki/Catherine_Paradeise
Roland Paskoff,scholar,1933.0,Oujda,,,,,,https://fr.wikipedia.org/wiki/Roland_Paskoff
Jean-Baptiste de Panafieu,scholar,1955.0,Unknown,,,,,,https://fr.wikipedia.org/wiki/Jean-Baptiste_de_Panafieu
Jean-Claude Passeron,scholar,1930.0,Nice,43.71273,7.25092,06,Alpes-Maritimes,Provence-Alpes-Côte d'Azur,https://fr.wikipedia.org/wiki/Jean-Claude_Passeron
Olivier Pastré,scholar,1950.0,Neuilly-sur-Seine,48.886191,2.265869,92,Hauts-de-Seine,Île-de-France,https://fr.wikipedia.org/wiki/Olivier_Pastr%C3%A9
Yves Pélicier,scholar,1926.0,Alger,48.334676,-0.546793,53,Mayenne,Pays de la Loire,https://fr.wikipedia.org/wiki/Yves_P%C3%A9licier
Gilles Pécout,scholar,1961.0,Marseille,43.282,5.405,13,Bouches-du-Rhône,Provence-Alpes-Côte d'Azur,https://fr.wikipedia.org/wiki/Gilles_P%C3%A9cout
Alain Pellet,scholar,1947.0,Paris,48.859,2.347,75,Paris,Île-de-France,https://fr.wikipedia.org/wiki/Alain_Pellet
Laurent Pernot (helléniste),scholar,1955.0,Saumur,47.261814,-0.082764,49,Maine-et-Loire,Pays de la Loire,https://fr.wikipedia.org/wiki/Laurent_Pernot_(hell%C3%A9niste)
Guy Perrier (géophysicien),scholar,1939.0,Clermont-Ferrand,45.786671,3.107055,63,Puy-de-Dôme,Auvergne-Rhône-Alpes,https://fr.wikipedia.org/wiki/Guy_Perrier_(g%C3%A9ophysicien)
Colette Pétonnet,scholar,1929.0,Poitiers,46.586578,0.35668,86,Vienne,Nouvelle-Aquitaine,https://fr.wikipedia.org/wiki/Colette_P%C3%A9tonnet
Loïc Philip,scholar,1932.0,Unknown,,,,,,https://fr.wikipedia.org/wiki/Lo%C3%AFc_Philip
Marc Philonenko,scholar,1930.0,Paris 14,48.830108,2.323026,75,Paris,Île-de-France,https://fr.wikipedia.org/wiki/Marc_Philonenko
Émile Picard,scholar,1856.0,Paris 6,48.849268,2.330883,75,Paris,Île-de-France,https://fr.wikipedia.org/wiki/%C3%89mile_Picard
Alexis Philonenko,scholar,1932.0,Paris 12,48.833494,2.415411,75,Paris,Île-de-France,https://fr.wikipedia.org/wiki/Alexis_Philonenko
Luc Picart,scholar,1867.0,Unknown,,,,,,https://fr.wikipedia.org/wiki/Luc_Picart
René Piedelièvre,scholar,1891.0,Rennes,48.110899,-1.68365,35,Ille-et-Vilaine,Bretagne,https://fr.wikipedia.org/wiki/Ren%C3%A9_Piedeli%C3%A8vre
Jean-Pierre Picot,scholar,1946.0,Montpellier,43.610476,3.87048,34,Hérault,Occitanie,https://fr.wikipedia.org/wiki/Jean-Pierre_Picot
Charles Pietri,scholar,1932.0,Marseille,43.282,5.405,13,Bouches-du-Rhône,Provence-Alpes-Côte d'Azur,https://fr.wikipedia.org/wiki/Charles_Pietri
Robert Piedelièvre,scholar,1859.0,Saint-Germain-en-Laye,48.923869,2.111227,78,Yvelines,Île-de-France,https://fr.wikipedia.org/wiki/Robert_Piedeli%C3%A8vre
Olivier Picard,scholar,1940.0,Bernay (Eure),49.089387,0.595349,27,Eure,Normandie,https://fr.wikipedia.org/wiki/Olivier_Picard
Luce Pietri,scholar,1931.0,Marseille,43.282,5.405,13,Bouches-du-Rhône,Provence-Alpes-Côte d'Azur,https://fr.wikipedia.org/wiki/Luce_Pietri
André Piganiol,scholar,1883.0,Havre,49.081779,-1.601172,50,Manche,Normandie,https://fr.wikipedia.org/wiki/Andr%C3%A9_Piganiol
Alain Pigeard,scholar,1948.0,Dijon,47.331848,5.033601,21,Côte-d'Or,Bourgogne-Franche-Comté,https://fr.wikipedia.org/wiki/Alain_Pigeard
Léon Pineau,scholar,1861.0,Moussac-sur-Vienne et,46.281397,0.686676,86,Vienne,Nouvelle-Aquitaine,https://fr.wikipedia.org/wiki/L%C3%A9on_Pineau
René Pintard,scholar,1903.0,Paris 8,48.873998,2.31129,75,Paris,Île-de-France,https://fr.wikipedia.org/wiki/Ren%C3%A9_Pintard
Adolphe Pinard,scholar,1844.0,Méry-sur-Seine,48.510355,3.892229,10,Aube,Grand Est,https://fr.wikipedia.org/wiki/Adolphe_Pinard
Michèle Piquard,scholar,1955.0,Neuilly-sur-Seine,48.886191,2.265869,92,Hauts-de-Seine,Île-de-France,https://fr.wikipedia.org/wiki/Mich%C3%A8le_Piquard
Henri Poincaré,scholar,1854.0,Nancy,48.688135,6.171263,54,Meurthe-et-Moselle,Grand Est,https://fr.wikipedia.org/wiki/Henri_Poincar%C3%A9
Jean Plattard,scholar,1873.0,Saint-Georges-de-Rene,48.111845,-1.67625,35,Ille-et-Vilaine,Bretagne,https://fr.wikipedia.org/wiki/Jean_Plattard
Jean-Robert Pitte,scholar,1949.0,Paris,48.859,2.347,75,Paris,Île-de-France,https://fr.wikipedia.org/wiki/Jean-Robert_Pitte
Marie-Dominique Popelard,scholar,1949.0,Paris,48.859,2.347,75,Paris,Île-de-France,https://fr.wikipedia.org/wiki/Marie-Dominique_Popelard
Henri Potez,scholar,1863.0,Montreuil-sur-Mer,50.464284,1.764471,62,Pas-de-Calais,Hauts-de-France,https://fr.wikipedia.org/wiki/Henri_Potez
Jean-Pierre Poulain,scholar,1956.0,Tulle,45.267177,1.764073,19,Corrèze,Nouvelle-Aquitaine,https://fr.wikipedia.org/wiki/Jean-Pierre_Poulain
Bernard Pouderon,scholar,1951.0,Saint-Étienne,45.430195,4.370045,42,Loire,Auvergne-Rhône-Alpes,https://fr.wikipedia.org/wiki/Bernard_Pouderon
Bernard Pottier (linguiste),scholar,1924.0,Paris 16,48.856305,2.267032,75,Paris,Île-de-France,https://fr.wikipedia.org/wiki/Bernard_Pottier_(linguiste)
Thierry Poyet (auteur),scholar,1968.0,Saint-Étienne,45.430195,4.370045,42,Loire,Auvergne-Rhône-Alpes,https://fr.wikipedia.org/wiki/Thierry_Poyet_(auteur)
Jean Pradel,scholar,1933.0,Châtellerault,46.8162,0.551,86,Vienne,Nouvelle-Aquitaine,https://fr.wikipedia.org/wiki/Jean_Pradel
Eirick Prairat,scholar,1957.0,Maroc,48.246969,-1.994383,35,Ille-et-Vilaine,Bretagne,https://fr.wikipedia.org/wiki/Eirick_Prairat
Gilles Prado,scholar,1947.0,Havre,49.081779,-1.601172,50,Manche,Normandie,https://fr.wikipedia.org/wiki/Gilles_Prado
Michel Provost,scholar,1945.0,Nantes,47.239367,-1.555335,44,Loire-Atlantique,Pays de la Loire,https://fr.wikipedia.org/wiki/Michel_Provost
Jacqueline de Proyart,scholar,1927.0,Paris 16,48.856305,2.267032,75,Paris,Île-de-France,https://fr.wikipedia.org/wiki/Jacqueline_de_Proyart
Philippe Presles,scholar,1957.0,Talence,44.80642,-0.592018,33,Gironde,Nouvelle-Aquitaine,https://fr.wikipedia.org/wiki/Philippe_Presles
Joëlle Prungnaud,scholar,1950.0,Unknown,,,,,,https://fr.wikipedia.org/wiki/Jo%C3%ABlle_Prungnaud
Antoine Prost,scholar,1933.0,Lons-le-Saunier,46.677499,5.559875,39,Jura,Bourgogne-Franche-Comté,https://fr.wikipedia.org/wiki/Antoine_Prost
Patrick Rambourg,scholar,1965.0,Mans,47.993378,0.191169,72,Sarthe,Pays de la Loire,https://fr.wikipedia.org/wiki/Patrick_Rambourg
Jean-Benoît Puech,scholar,1947.0,Aurillac,44.918771,2.435053,15,Cantal,Auvergne-Rhône-Alpes,https://fr.wikipedia.org/wiki/Jean-Beno%C3%AEt_Puech
Francis Rapp,scholar,1926.0,Strasbourg,48.579831,7.761454,67,Bas-Rhin,Grand Est,https://fr.wikipedia.org/wiki/Francis_Rapp
Denise Pumain,scholar,1946.0,Montbard,47.638944,4.335193,21,Côte-d'Or,Bourgogne-Franche-Comté,https://fr.wikipedia.org/wiki/Denise_Pumain
André Raymond,scholar,1925.0,Montargis,47.998342,2.735445,45,Loiret,Centre-Val de Loire,https://fr.wikipedia.org/wiki/Andr%C3%A9_Raymond
Armand Rébillon,scholar,1879.0,Ille-et-Vilaine,48.657991,-1.974617,35,Ille-et-Vilaine,Bretagne,https://fr.wikipedia.org/wiki/Armand_R%C3%A9billon
Serge Regourd,scholar,1948.0,Tarn-et-Garonne,44.218708,-1.290292,40,Landes,Nouvelle-Aquitaine,https://fr.wikipedia.org/wiki/Serge_Regourd
Paul Renard,scholar,1942.0,Lille,50.630951,3.045391,59,Nord,Hauts-de-France,https://fr.wikipedia.org/wiki/Paul_Renard
René Rémond,scholar,1918.0,Lons-le-Saunier,46.677499,5.559875,39,Jura,Bourgogne-Franche-Comté,https://fr.wikipedia.org/wiki/Ren%C3%A9_R%C3%A9mond
Édouard de Ribaucourt,scholar,1865.0,Payerne,45.185391,5.705218,38,Isère,Auvergne-Rhône-Alpes,https://fr.wikipedia.org/wiki/%C3%89douard_de_Ribaucourt
Claude Riahi,scholar,1940.0,Tunis,44.05238,0.276355,47,Lot-et-Garonne,Nouvelle-Aquitaine,https://fr.wikipedia.org/wiki/Claude_Riahi
Myriam Revault d'Allonnes,scholar,1942.0,Roanne,46.043412,4.072015,42,Loire,Auvergne-Rhône-Alpes,https://fr.wikipedia.org/wiki/Myriam_Revault_d%27Allonnes
Gustave Ribaud,scholar,1884.0,Haute-Saône,47.473904,5.379161,21,Côte-d'Or,Bourgogne-Franche-Comté,https://fr.wikipedia.org/wiki/Gustave_Ribaud
Paul Ricœur,scholar,1913.0,Valence (Drôme),44.580095,4.753405,26,Drôme,Auvergne-Rhône-Alpes,https://fr.wikipedia.org/wiki/Paul_Ric%C5%93ur
Jean Richer (universitaire),scholar,1915.0,Paris 4,48.854042,2.356841,75,Paris,Île-de-France,https://fr.wikipedia.org/wiki/Jean_Richer_(universitaire)
Jean Richard (historien),scholar,1921.0,Kremlin-Bicêtre,48.811421,2.362089,94,Val-de-Marne,Île-de-France,https://fr.wikipedia.org/wiki/Jean_Richard_(historien)
Jean-Noël Robert,scholar,1949.0,Paris,48.859,2.347,75,Paris,Île-de-France,https://fr.wikipedia.org/wiki/Jean-No%C3%ABl_Robert
Christian Robin,scholar,1943.0,Chaumont (Haute-Marne),48.186036,5.109231,52,Haute-Marne,Grand Est,https://fr.wikipedia.org/wiki/Christian_Robin
Jacques Robichez,scholar,1914.0,La Madeleine (Nord),4.928595,-52.322444,973,Guyane,,https://fr.wikipedia.org/wiki/Jacques_Robichez
Daniel Roche,scholar,1935.0,Paris 14,48.830108,2.323026,75,Paris,Île-de-France,https://fr.wikipedia.org/wiki/Daniel_Roche
Claude Roëls,scholar,1946.0,Unknown,,,,,,https://fr.wikipedia.org/wiki/Claude_Ro%C3%ABls
Loïck Roche,scholar,1961.0,Paris,48.859,2.347,75,Paris,Île-de-France,https://fr.wikipedia.org/wiki/Lo%C3%AFck_Roche
Jean Roche (recteur),scholar,1901.0,Sorgues (Vaucluse),44.009794,4.877015,84,Vaucluse,Provence-Alpes-Côte d'Azur,https://fr.wikipedia.org/wiki/Jean_Roche_(recteur)
Geneviève Rodis-Lewis,scholar,1918.0,Lure,47.684098,6.497007,70,Haute-Saône,Bourgogne-Franche-Comté,https://fr.wikipedia.org/wiki/Genevi%C3%A8ve_Rodis-Lewis
Jacques Rossiaud,scholar,1932.0,Seine-et-Oise,49.003436,2.080953,78,Yvelines,Île-de-France,https://fr.wikipedia.org/wiki/Jacques_Rossiaud
Pierre Rosanvallon,scholar,1948.0,Blois,47.581228,1.316533,41,Loir-et-Cher,Centre-Val de Loire,https://fr.wikipedia.org/wiki/Pierre_Rosanvallon
Sylvie Rollet,scholar,1952.0,Tunis,44.05238,0.276355,47,Lot-et-Garonne,Nouvelle-Aquitaine,https://fr.wikipedia.org/wiki/Sylvie_Rollet
Fañch Roudaut,scholar,1942.0,Toulon,43.136379,5.933443,83,Var,Provence-Alpes-Côte d'Azur,https://fr.wikipedia.org/wiki/Fa%C3%B1ch_Roudaut
Dominique Rousseau (juriste),scholar,1949.0,Unknown,,,,,,https://fr.wikipedia.org/wiki/Dominique_Rousseau_(juriste)
Yves Roucaute,scholar,1953.0,Paris,48.859,2.347,75,Paris,Île-de-France,https://fr.wikipedia.org/wiki/Yves_Roucaute
André Rouillé,scholar,1948.0,Deux Rivières,47.686079,3.698674,89,Yonne,Bourgogne-Franche-Comté,https://fr.wikipedia.org/wiki/Andr%C3%A9_Rouill%C3%A9
Paul Ruff,scholar,1913.0,Sidi Bel Abbès,49.267103,4.069649,51,Marne,Grand Est,https://fr.wikipedia.org/wiki/Paul_Ruff
Olivier Roy,scholar,1949.0,La Rochelle,47.984627,-1.65389,35,Ille-et-Vilaine,Bretagne,https://fr.wikipedia.org/wiki/Olivier_Roy
Gustave Rudler,scholar,1872.0,Besançon,47.251938,6.001699,25,Doubs,Bourgogne-Franche-Comté,https://fr.wikipedia.org/wiki/Gustave_Rudler
Dominique Roux,scholar,1943.0,Gap,44.563233,6.076778,05,Hautes-Alpes,Provence-Alpes-Côte d'Azur,https://fr.wikipedia.org/wiki/Dominique_Roux
Jean-Marie Salamito,scholar,,Unknown,,,,,,https://fr.wikipedia.org/wiki/Jean-Marie_Salamito
Viola Sachs,scholar,1929.0,Hambourg,43.250703,5.388398,13,Bouches-du-Rhône,Provence-Alpes-Côte d'Azur,https://fr.wikipedia.org/wiki/Viola_Sachs
Bertrand Saint-Sernin,scholar,1931.0,Brest,48.406435,-4.497736,29,Finistère,Bretagne,https://fr.wikipedia.org/wiki/Bertrand_Saint-Sernin
Guillaume Sainteny,scholar,1958.0,Boulogne-Billancourt,48.837799,2.243202,92,Hauts-de-Seine,Île-de-France,https://fr.wikipedia.org/wiki/Guillaume_Sainteny
Jean-Luc Sandoz,scholar,1960.0,Unknown,,,,,,https://fr.wikipedia.org/wiki/Jean-Luc_Sandoz
John Scheid,scholar,1946.0,Luxembourg,47.230756,-1.35472,44,Loire-Atlantique,Pays de la Loire,https://fr.wikipedia.org/wiki/John_Scheid
Maurice Sartre,scholar,1944.0,Lyon le 3 octobre 194,45.771749,4.800999,69,Rhône,Auvergne-Rhône-Alpes,https://fr.wikipedia.org/wiki/Maurice_Sartre
Jacques Scherer,scholar,1912.0,Paris 10,48.88143,2.366774,75,Paris,Île-de-France,https://fr.wikipedia.org/wiki/Jacques_Scherer
Yves Schemeil,scholar,1947.0,Égypte,46.796916,4.401996,71,Saône-et-Loire,Bourgogne-Franche-Comté,https://fr.wikipedia.org/wiki/Yves_Schemeil
Jean Schneider (médiéviste),scholar,1903.0,Metz,49.108385,6.194891,57,Moselle,Grand Est,https://fr.wikipedia.org/wiki/Jean_Schneider_(m%C3%A9di%C3%A9viste)
Marc Scialom,scholar,1934.0,Tunis,44.05238,0.276355,47,Lot-et-Garonne,Nouvelle-Aquitaine,https://fr.wikipedia.org/wiki/Marc_Scialom
Violaine Sebillotte Cuchet,scholar,1965.0,Unknown,,,,,,https://fr.wikipedia.org/wiki/Violaine_Sebillotte_Cuchet
Paul Sebag,scholar,1919.0,Tunis,44.05238,0.276355,47,Lot-et-Garonne,Nouvelle-Aquitaine,https://fr.wikipedia.org/wiki/Paul_Sebag
Bertrand Seiller,scholar,1969.0,Unknown,,,,,,https://fr.wikipedia.org/wiki/Bertrand_Seiller
Alain Séguy-Duclot,scholar,1961.0,Carcassonne,43.206781,2.349415,11,Aude,Occitanie,https://fr.wikipedia.org/wiki/Alain_S%C3%A9guy-Duclot
Madeleine Scopello,scholar,1953.0,Turin,45.879242,4.25004,42,Loire,Auvergne-Rhône-Alpes,https://fr.wikipedia.org/wiki/Madeleine_Scopello
Michel Serres,scholar,1930.0,Agen,44.202304,0.631041,47,Lot-et-Garonne,Nouvelle-Aquitaine,https://fr.wikipedia.org/wiki/Michel_Serres
William Seston,scholar,1900.0,Lasalle,43.692079,0.084108,32,Gers,Occitanie,https://fr.wikipedia.org/wiki/William_Seston
Jean Sgard,scholar,1928.0,Paris,48.859,2.347,75,Paris,Île-de-France,https://fr.wikipedia.org/wiki/Jean_Sgard
Fred Siguier,scholar,1909.0,Saint-Louis (Sénégal),43.56568,1.49958,31,Haute-Garonne,Occitanie,https://fr.wikipedia.org/wiki/Fred_Siguier
Olivier Sire,scholar,1954.0,Paris,48.859,2.347,75,Paris,Île-de-France,https://fr.wikipedia.org/wiki/Olivier_Sire
Irène Sokologorsky,scholar,1936.0,Saint-Denis,-20.909778,55.444588,974,La Réunion,,https://fr.wikipedia.org/wiki/Ir%C3%A8ne_Sokologorsky
Jacques Solé,scholar,1932.0,Grenoble,45.182828,5.724369,38,Isère,Auvergne-Rhône-Alpes,https://fr.wikipedia.org/wiki/Jacques_Sol%C3%A9
Dominique Sourdel,scholar,1921.0,Pont-Sainte-Maxence,49.309303,2.60379,60,Oise,Hauts-de-France,https://fr.wikipedia.org/wiki/Dominique_Sourdel
Georges-Henri Soutou,scholar,1943.0,Genève,47.21202,-1.60215,44,Loire-Atlantique,Pays de la Loire,https://fr.wikipedia.org/wiki/Georges-Henri_Soutou
Benjamin Stora,scholar,1950.0,Constantine,46.83879,-1.467818,85,Vendée,Pays de la Loire,https://fr.wikipedia.org/wiki/Benjamin_Stora
Frédéric Stasiak,scholar,1966.0,Jarny,49.153575,5.879061,54,Meurthe-et-Moselle,Grand Est,https://fr.wikipedia.org/wiki/Fr%C3%A9d%C3%A9ric_Stasiak
Alain Tallon,scholar,1967.0,Nancy,48.688135,6.171263,54,Meurthe-et-Moselle,Grand Est,https://fr.wikipedia.org/wiki/Alain_Tallon
George Steiner,scholar,1929.0,Neuilly-sur-Seine,48.886191,2.265869,92,Hauts-de-Seine,Île-de-France,https://fr.wikipedia.org/wiki/George_Steiner
Christelle Taraud,scholar,1969.0,Paris 13,48.830193,2.365001,75,Paris,Île-de-France,https://fr.wikipedia.org/wiki/Christelle_Taraud
Haroun Tazieff,scholar,1914.0,Varsovie,43.596489,1.430218,31,Haute-Garonne,Occitanie,https://fr.wikipedia.org/wiki/Haroun_Tazieff
Danielle Tartakowsky,scholar,1947.0,Puteaux,48.884156,2.237199,92,Hauts-de-Seine,Île-de-France,https://fr.wikipedia.org/wiki/Danielle_Tartakowsky
Georges Tate,scholar,1943.0,Vigneux-sur-Seine,48.705366,2.426026,91,Essonne,Île-de-France,https://fr.wikipedia.org/wiki/Georges_Tate
Georges Tchegloff,scholar,1922.0,Varna (Bulgarie),48.084769,-1.658708,35,Ille-et-Vilaine,Bretagne,https://fr.wikipedia.org/wiki/Georges_Tchegloff
Jean-François Ternay,scholar,1955.0,Paris,48.859,2.347,75,Paris,Île-de-France,https://fr.wikipedia.org/wiki/Jean-Fran%C3%A7ois_Ternay
François Terré,scholar,1930.0,Paris 7,48.853954,2.312864,75,Paris,Île-de-France,https://fr.wikipedia.org/wiki/Fran%C3%A7ois_Terr%C3%A9
Maurice Testard,scholar,1921.0,Rennes,48.110899,-1.68365,35,Ille-et-Vilaine,Bretagne,https://fr.wikipedia.org/wiki/Maurice_Testard
Yves Ternon,scholar,1932.0,Saint-Mandé,48.841526,2.419441,94,Val-de-Marne,Île-de-France,https://fr.wikipedia.org/wiki/Yves_Ternon
Christian Thibon,scholar,1952.0,Carcassonne,43.206781,2.349415,11,Aude,Occitanie,https://fr.wikipedia.org/wiki/Christian_Thibon
Marie-Jo Thiel,scholar,1957.0,Sarralbe,48.992751,7.024748,57,Moselle,Grand Est,https://fr.wikipedia.org/wiki/Marie-Jo_Thiel
Anne-Marie Thiesse,scholar,1955.0,Oullins,45.709441,4.806746,69,Rhône,Auvergne-Rhône-Alpes,https://fr.wikipedia.org/wiki/Anne-Marie_Thiesse
Françoise Thom,scholar,1951.0,Strasbourg,48.579831,7.761454,67,Bas-Rhin,Grand Est,https://fr.wikipedia.org/wiki/Fran%C3%A7oise_Thom
Véronique Thuin-Chaudron,scholar,1961.0,Unknown,,,,,,https://fr.wikipedia.org/wiki/V%C3%A9ronique_Thuin-Chaudron
Aymond Tranquard,scholar,1932.0,Affreville le 28 juil,49.095466,-1.307512,50,Manche,Normandie,https://fr.wikipedia.org/wiki/Aymond_Tranquard
Pierre Toubert,scholar,1932.0,Algérie française,43.481315,3.472724,34,Hérault,Occitanie,https://fr.wikipedia.org/wiki/Pierre_Toubert
Bertrand Tillier,scholar,1968.0,Châteauroux,45.960056,-0.890924,17,Charente-Maritime,Nouvelle-Aquitaine,https://fr.wikipedia.org/wiki/Bertrand_Tillier
Jean Tulard,scholar,1933.0,Paris,48.859,2.347,75,Paris,Île-de-France,https://fr.wikipedia.org/wiki/Jean_Tulard
Jean-René Trochet,scholar,1950.0,Unknown,,,,,,https://fr.wikipedia.org/wiki/Jean-Ren%C3%A9_Trochet
John Tolan,scholar,1959.0,Milwaukee,,,,,,https://fr.wikipedia.org/wiki/John_Tolan
Pol Trousset,scholar,1934.0,Reims,49.250948,4.055595,51,Marne,Grand Est,https://fr.wikipedia.org/wiki/Pol_Trousset
Boris Unbegaun,scholar,1898.0,Moscou,43.657685,-0.577435,40,Landes,Nouvelle-Aquitaine,https://fr.wikipedia.org/wiki/Boris_Unbegaun
Alain Vaillant,scholar,1958.0,Paris,48.859,2.347,75,Paris,Île-de-France,https://fr.wikipedia.org/wiki/Alain_Vaillant
André Tunc,scholar,1917.0,Meaux,48.129978,-1.760489,35,Ille-et-Vilaine,Bretagne,https://fr.wikipedia.org/wiki/Andr%C3%A9_Tunc
Maurice Vaïsse,scholar,1942.0,Alger,48.334676,-0.546793,53,Mayenne,Pays de la Loire,https://fr.wikipedia.org/wiki/Maurice_Va%C3%AFsse
Armelle Vardelle,scholar,1953.0,Unknown,,,,,,https://fr.wikipedia.org/wiki/Armelle_Vardelle
Léon Vandermeersch,scholar,1928.0,Wervicq-Sud,50.760836,3.0485,59,Nord,Hauts-de-France,https://fr.wikipedia.org/wiki/L%C3%A9on_Vandermeersch
Jean Verdeil,scholar,1935.0,Unknown,,,,,,https://fr.wikipedia.org/wiki/Jean_Verdeil
André Vauchez (historien),scholar,1938.0,Thionville,49.370681,6.150548,57,Moselle,Grand Est,https://fr.wikipedia.org/wiki/Andr%C3%A9_Vauchez_(historien)
Jean-Pierre Vesperini,scholar,1941.0,Unknown,,,,,,https://fr.wikipedia.org/wiki/Jean-Pierre_Vesperini
Paul Veyne,scholar,1930.0,Aix-en-Provence,43.541369,5.406124,13,Bouches-du-Rhône,Provence-Alpes-Côte d'Azur,https://fr.wikipedia.org/wiki/Paul_Veyne
Christian Verlaque,scholar,1936.0,Boulemane,,,,,,https://fr.wikipedia.org/wiki/Christian_Verlaque
Jean-Pierre Vernant,scholar,1914.0,Provins,48.558668,3.2981,77,Seine-et-Marne,Île-de-France,https://fr.wikipedia.org/wiki/Jean-Pierre_Vernant
Hubert Védrine,scholar,1947.0,Bellegarde-en-Marche,45.98203,2.297421,23,Creuse,Nouvelle-Aquitaine,https://fr.wikipedia.org/wiki/Hubert_V%C3%A9drine
Simone Vierne,scholar,1930.0,Savoie,44.617348,0.181972,47,Lot-et-Garonne,Nouvelle-Aquitaine,https://fr.wikipedia.org/wiki/Simone_Vierne
Francis Vian,scholar,1917.0,Privas,44.726042,4.594919,07,Ardèche,Auvergne-Rhône-Alpes,https://fr.wikipedia.org/wiki/Francis_Vian
Serge Vincent-Vidal,scholar,1924.0,Catalogne,44.114796,0.227375,47,Lot-et-Garonne,Nouvelle-Aquitaine,https://fr.wikipedia.org/wiki/Serge_Vincent-Vidal
Stéphanie Vincent,scholar,1977.0,Amboise,47.397272,0.987649,37,Indre-et-Loire,Centre-Val de Loire,https://fr.wikipedia.org/wiki/St%C3%A9phanie_Vincent
Jean Viviès,scholar,1957.0,Lavelanet dans l'Ariè,,,,,,https://fr.wikipedia.org/wiki/Jean_Vivi%C3%A8s
Jean-Noël Vuarnet,scholar,1945.0,Chambéry,47.165242,-1.034458,49,Maine-et-Loire,Pays de la Loire,https://fr.wikipedia.org/wiki/Jean-No%C3%ABl_Vuarnet
Cyrille Vogel,scholar,1919.0,Soultzbach,48.033358,7.201173,68,Haut-Rhin,Grand Est,https://fr.wikipedia.org/wiki/Cyrille_Vogel
Jules Vuillemin,scholar,1920.0,Pierrefontaine-les-Va,47.214176,6.541457,25,Doubs,Bourgogne-Franche-Comté,https://fr.wikipedia.org/wiki/Jules_Vuillemin
Albert Waddington,scholar,1861.0,Strasbourg,48.579831,7.761454,67,Bas-Rhin,Grand Est,https://fr.wikipedia.org/wiki/Albert_Waddington
Jean Wahl,scholar,1888.0,Marseille,43.282,5.405,13,Bouches-du-Rhône,Provence-Alpes-Côte d'Azur,https://fr.wikipedia.org/wiki/Jean_Wahl
Emmanuel de Waresquiel,scholar,1957.0,Paris,48.859,2.347,75,Paris,Île-de-France,https://fr.wikipedia.org/wiki/Emmanuel_de_Waresquiel
Christian Warolin,scholar,1921.0,Vincennes,48.847279,2.437785,94,Val-de-Marne,Île-de-France,https://fr.wikipedia.org/wiki/Christian_Warolin
Colette Weil,scholar,1926.0,Strasbourg,48.579831,7.761454,67,Bas-Rhin,Grand Est,https://fr.wikipedia.org/wiki/Colette_Weil
Éric Weil,scholar,1904.0,Parchim,48.637727,4.967384,52,Haute-Marne,Grand Est,https://fr.wikipedia.org/wiki/%C3%89ric_Weil
François Weil,scholar,1961.0,Paris,48.859,2.347,75,Paris,Île-de-France,https://fr.wikipedia.org/wiki/Fran%C3%A7ois_Weil
Pascale Weber,scholar,1968.0,Paris,,,,,,https://fr.wikipedia.org/wiki/Pascale_Weber
Annette Wieviorka,scholar,1948.0,Paris,48.859,2.347,75,Paris,Île-de-France,https://fr.wikipedia.org/wiki/Annette_Wieviorka
Étienne Wolff,scholar,1904.0,Auxerre,47.791247,3.579905,89,Yonne,Bourgogne-Franche-Comté,https://fr.wikipedia.org/wiki/%C3%89tienne_Wolff
Michel Winock,scholar,1937.0,Unknown,,,,,,https://fr.wikipedia.org/wiki/Michel_Winock
Frédéric Worms,scholar,1964.0,Boulogne-Billancourt,48.837799,2.243202,92,Hauts-de-Seine,Île-de-France,https://fr.wikipedia.org/wiki/Fr%C3%A9d%C3%A9ric_Worms
Denis Woronoff,scholar,1939.0,Unknown,,,,,,https://fr.wikipedia.org/wiki/Denis_Woronoff
Philippe Wolff,scholar,1913.0,Montmorency (Val-d'Oise),48.989397,2.321988,95,Val-d'Oise,Île-de-France,https://fr.wikipedia.org/wiki/Philippe_Wolff
Francis Yaiche,scholar,1950.0,Unknown,,,,,,https://fr.wikipedia.org/wiki/Francis_Yaiche
Malika Zeghal,scholar,1965.0,Unknown,,,,,,https://fr.wikipedia.org/wiki/Malika_Zeghal
Michel Zink,scholar,1945.0,Issy-les-Moulineaux,48.823903,2.262887,92,Hauts-de-Seine,Île-de-France,https://fr.wikipedia.org/wiki/Michel_Zink
