name;dob;tag;pob;department;dept_num;region;lat;lon
Émile-Maurice Hermès;1871;executive;Paris 9;Paris;75;Île-de-France;48.872615814208984;2.340359926223755
Fernand Baldensperger;1871;scholar;Saint-Dié-des-Vosges;Vosges;88;Grand Est;48.294697;6.940983
Émile Borel;1871;scholar;Saint-affrique;Aveyron;12;Occitanie;43.961458;2.854273
Eugène Gaudemet;1872;scholar;Vosne-romanee;Côte-d'Or;21;Bourgogne-Franche-Comté;47.157389;4.959948
Gustave Rudler;1872;scholar;Besancon;Doubs;25;Bourgogne-Franche-Comté;47.251938;6.001699
René Huchon;1872;scholar;Paris 7;Paris;75;Île-de-France;48.853954;2.312864
William Marçais;1872;scholar;Rennes;Ille-et-Vilaine;35;Bretagne;48.110899;-1.68365
Eugène Cottard;1873;scholar;Annecy;Haute-Savoie;74;Auvergne-Rhône-Alpes;45.901584;6.125296
Jean Abadie;1873;scholar;Tarbes;Hautes-Pyrénées;65;Occitanie;43.239349;0.06402
Jean Plattard;1873;scholar;Saint-georges-de-rene;Ille-et-Vilaine;35;Bretagne;48.111845;-1.67625
Paul Darbois;1873;scholar;Charolles;Saône-et-Loire;71;Bourgogne-Franche-Comté;46.443772;4.30193
Aimé Bourbonnaud;1874;executive;Limoges;Haute-Vienne;87;Nouvelle-Aquitaine;45.856159;1.221254
Émile Tony;1874;executive;Wissembourg;Bas-Rhin;67;Grand Est;49.01481;7.953222
François Coty;1874;executive;Ajaccio;Corse-du-Sud;2A;Corse;41.93368;8.715325
Joseph Zamanski;1874;executive;Parthenay;Deux-Sèvres;79;Nouvelle-Aquitaine;46.644061;-0.240067
Jacques Taffanel;1875;executive;Paris 2;Paris;75;Île-de-France;48.867669;2.341157
Léon Givaudan;1875;executive;Caluire-et-cuire;Rhône;69;Auvergne-Rhône-Alpes;45.797623;4.848745
Georges Le Gentil;1875;scholar;Fere-champenoise;Marne;51;Grand Est;48.758005;3.9976
André Defline;1876;executive;Bruay-sur-l'escaut;Nord;59;Hauts-de-France;50.398197;3.540327
Félix Kir;1876;parliament;Alise-Sainte-Reine;Côte-d'Or;21;Bourgogne-Franche-Comté;47.53552;4.493971
Georges Marçais;1876;scholar;Rennes;Ille-et-Vilaine;35;Bretagne;48.110899;-1.68365
Louis Renault;1877;executive;Paris 8;Paris;75;Île-de-France;48.873998;2.31129
Albert Michel-Lévy;1877;scholar;Autun;Saône-et-Loire;71;Bourgogne-Franche-Comté;46.938842;4.304399
Georges Contenau;1877;scholar;Laon;Aisne;2;Hauts-de-France;49.570287;3.614719
Henri Breuil;1877;scholar;Mortain-Bocage;Manche;50;Normandie;48.611003;-0.940307
Émile Maechling;1878;executive;Strasbourg;Bas-Rhin;67;Grand Est;48.579831;7.761454
Jean Bouloumié;1878;executive;Vittel;Vosges;88;Grand Est;48.201324;5.949794
Paul Reynaud;1878;parliament;Barcelonnette;Alpes-de-Haute-Provence;4;Provence-Alpes-Côte d'Azur;44.39024;6.643655
Lucien Febvre;1878;scholar;Nancy;Meurthe-et-Moselle;54;Grand Est;48.688135;6.171263
Alexis Aron;1879;executive;Nimes;Gard;30;Occitanie;43.814652;4.356289
Maurice Bokanowski;1879;minister;Le Havre;Seine-Maritime;76;Normandie;49.507345;0.129995
Alfred Ernout;1879;scholar;Lille;Nord;59;Hauts-de-France;50.630951;3.045391
Armand Rébillon;1879;scholar;Saint-Georges-de-Reintembault;Ille-et-Vilaine;35;Bretagne;48.657991;-1.974617
Léon Cristiani;1879;scholar;Escurolles;Allier;3;Auvergne-Rhône-Alpes;46.142478;3.272838
Pierre-Maurice Masson;1879;scholar;Metz;Moselle;57;Grand Est;49.108385;6.194891
Henri Donnedieu de Vabres;1880;scholar;Nimes;Gard;30;Occitanie;43.814652;4.356289
Édouard Cadier;1881;executive;Osse-en-aspe;Pyrénées-Atlantiques;64;Nouvelle-Aquitaine;42.995852;-0.620249
Hippolyte, Roc, Aristide Ducos;1881;parliament;Saint-André;Haute-Garonne;31;Occitanie;43.544177;1.692693
Jean Balas;1881;executive;Le vesinet;Yvelines;78;Île-de-France;48.894697;2.131228
Jules Aubrun;1881;executive;Montlucon;Allier;3;Auvergne-Rhône-Alpes;46.342307;2.604952
Raoul Nanty;1882;executive;Avignon;Vaucluse;84;Provence-Alpes-Côte d'Azur;43.936345;4.848861
Gervaise;1883;executive;Nice;Alpes-Maritimes;6;Provence-Alpes-Côte d'Azur;43.71273;7.25092
Louis Escallier;1883;executive;Malesherbois;Loiret;45;Centre-Val de Loire;48.293144;2.411073
André Piganiol;1883;scholar;Le Havre;Seine-Maritime;76;Normandie;49.507345;0.129995
Abel Poyaud;1884;executive;Bernay-Saint-Martin;Charente-Maritime;17;Nouvelle-Aquitaine;45.653862;0.513553
Albert Görge;1884;parliament;Wisembach;Vosges;88;Grand Est;48.257546;7.098665
Henry Cravoisier;1884;executive;Melun;Seine-et-Marne;77;Île-de-France;48.541332;2.655743
Charles Berjole;1884;scholar;Angers;Maine-et-Loire;49;Pays de la Loire;47.467471;-0.561615
Gustave Ribaud;1884;scholar;Conflans-sur-lanterne;Haute-Saône;70;Bourgogne-Franche-Comté;47.473904;5.379161
Eugène, Georges, Léopold, Sully Montel;1885;parliament;Montbazin;Hérault;34;Occitanie;43.515435;3.697092
Germaine Bouloumié;1885;executive;Vittel;Vosges;88;Grand Est;48.201324;5.949794
Louis Jouhanneau;1885;parliament;Nohant-Vicq;Indre;36;Centre-Val de Loire;46.640588;1.959227
Émile Mireaux;1885;scholar;Mont-de-marsan;Landes;40;Nouvelle-Aquitaine;44.0441;1.103216
Charles Delesalle;1886;parliament;Lille;Nord;59;Hauts-de-France;50.646872;3.054694
Jean Dupuis;1886;executive;Saint-mande;Val-de-Marne;94;Île-de-France;48.841526;2.419441
Victor, Léon, Henri Chatenay;1886;parliament;Doué-en-Anjou;Maine-et-Loire;49;Pays de la Loire;47.194663;-0.272756
André Francois-Poncet;1887;executive;Provins;Seine-et-Marne;77;Île-de-France;48.558668;3.2981
Franck Cadoret;1887;executive;Riec-sur-Belon;Finistère;29;Bretagne;47.852994;-3.680678
Pierre Taittinger;1887;executive;Paris 18;Paris;75;Île-de-France;48.896214;2.362997
Antoine Aymar;1888;executive;Saint-marsal;Pyrénées-Orientales;66;Occitanie;42.536308;2.619124
Arthur Musmeaux;1888;parliament;Anor;Nord;59;Hauts-de-France;49.987344;4.119788
François Var;1888;parliament;Ussel;Corrèze;19;Nouvelle-Aquitaine;45.557803;2.344129
Raymond Berr;1888;executive;Paris 7;Paris;75;Île-de-France;48.853954;2.312864
Georges Kuhnholtz-Lordat;1888;scholar;Montpellier;Hérault;34;Occitanie;43.610476;3.87048
Henri Laugier;1888;scholar;Mane;Alpes-de-Haute-Provence;4;Provence-Alpes-Côte d'Azur;43.834351;5.775381
Jean Wahl;1888;scholar;Marseille;Bouches-du-Rhône;13;Provence-Alpes-Côte d'Azur;43.282;5.405
Joseph Lefftz;1888;scholar;Obernai;Bas-Rhin;67;Grand Est;48.462885;7.468147
Etienne Drioton;1889;scholar;Nancy;Meurthe-et-Moselle;54;Grand Est;48.688135;6.171263
Ferdinand Roques;1889;parliament;Plaisance;Gers;32;Occitanie;43.585233;0.062004
Georges, Etienne Bonnet;1889;parliament;Bassillac-et-Auberoche;Dordogne;24;Nouvelle-Aquitaine;45.193017;0.855203
Jacques Gavini;1889;parliament;Bastia;Haute-Corse;2B;Corse;42.687608;9.435179
Joseph dit Virgile Barel;1889;parliament;Drap;Alpes-Maritimes;6;Provence-Alpes-Côte d'Azur;43.758587;7.333517
Léon Debouverie;1889;executive;Lannoy;Nord;59;Hauts-de-France;50.720797;3.157799
Paul Fallot;1889;scholar;Strasbourg;Bas-Rhin;67;Grand Est;48.579831;7.761454
Pierre, Denis Gamel;1889;parliament;Nimes;Gard;30;Occitanie;43.814652;4.356289
Amédée Mercier;1890;parliament;Malafretaz;Ain;1;Auvergne-Rhône-Alpes;46.324302;5.146197
André Vaillant;1890;scholar;Soissons;Aisne;2;Hauts-de-France;49.377401;3.327152
Arthur Richards;1890;parliament;Pointe-a-pitre;Guadeloupe;971;Guadeloupe;16.23619;-61.537759
Charles de Gaulle;1890;president;Lille;Nord;59;Hauts-de-France;50.630951;3.045391
Émile Taudière;1890;executive;L'absie;Deux-Sèvres;79;Nouvelle-Aquitaine;46.636252;-0.561076
Jean Médecin;1890;parliament;Nice;Alpes-Maritimes;6;Provence-Alpes-Côte d'Azur;43.674468;7.196837
Louis, Winocq, Achille, Eugène Christiaens;1890;parliament;Boulogne-sur-er;Pas-de-Calais;62;Hauts-de-France;50.729737;1.614205
Antoine Pinay;1891;minister;Saint-symphorien-sur-coise;Rhône;69;Auvergne-Rhône-Alpes;45.634387;4.449903
Fernand Duchâteau;1891;parliament;Cysoing;Nord;59;Hauts-de-France;50.56769;3.215763
Henry Orrion;1891;parliament;Les sables-d'olonne;Vendée;85;Pays de la Loire;46.496592;-1.771875
René Caillaud;1891;parliament;Issoudin;Indre;36;Centre-Val de Loire;46.944428;2.01544
Télesphore Caudron;1891;parliament;Bruay-la-Buissière;Pas-de-Calais;62;Hauts-de-France;50.484799;2.528873
Pierre Fouché;1891;scholar;Ille-sur-tet;Pyrénées-Orientales;66;Occitanie;42.672938;2.629795
René Piedelièvre;1891;scholar;Rennes;Ille-et-Vilaine;35;Bretagne;48.110899;-1.68365
Gustave Anduze-Faris;1892;executive;Toulouse;Haute-Garonne;31;Occitanie;43.604082;1.433805
Marcel Dassault;1892;parliament;Paris 9;Paris;75;Île-de-France;48.872615814208984;2.340359926223755
Pierre Hénault;1892;parliament;Paris 9;Paris;75;Île-de-France;48.872615814208984;2.340359926223755
Raoul Meyer;1892;executive;Villefranche-sur-saone;Rhône;69;Auvergne-Rhône-Alpes;45.985089;4.724382
Robert Puiseux;1892;executive;Paris 5;Paris;75;Île-de-France;48.845277;2.350554
André Pézard;1893;scholar;Paris 11;Paris;75;Île-de-France;48.86030960083008;2.3786137104034424
Edmond Duchesne;1893;parliament;Evreux;Eure;27;Normandie;49.020599;1.146898
François, Marie, Valentin Blancho;1893;parliament;Saint-nazaire;Loire-Atlantique;44;Pays de la Loire;47.275247;-2.242494
Jean Salliard du Rivault;1893;parliament;Saint-gaudent;Vienne;86;Nouvelle-Aquitaine;46.110989;0.289344
Jules Moch;1893;parliament;Paris 16;Paris;75;Île-de-France;48.86101150512695;2.2834136486053467
Robert Lemaignen;1893;executive;Blois;Loir-et-Cher;41;Centre-Val de Loire;47.581228;1.316533
André Boileau;1894;parliament;Fresse-sur-moselle;Vosges;88;Grand Est;47.872253;6.79409
Henri Marie Joseph Allard;1894;executive;Douai;Nord;59;Hauts-de-France;50.379896;3.094897
Henry, Alexandre, Emmanuel, Marie Bergasse;1894;parliament;Marseille;Bouches-du-Rhône;13;Provence-Alpes-Côte d'Azur;43.279396;5.381923
Jean Fraissinet;1894;parliament;Marseille;Bouches-du-Rhône;13;Provence-Alpes-Côte d'Azur;43.279396;5.381923
Jean Fraissinet;1894;executive;Marseille;Bouches-du-Rhône;13;Provence-Alpes-Côte d'Azur;43.282;5.405
Joseph Dixmier;1894;parliament;Varennes-sur-morges;Puy-de-Dôme;63;Auvergne-Rhône-Alpes;45.941653;3.183111
Léon Salagnac;1894;parliament;Treignac;Corrèze;19;Nouvelle-Aquitaine;45.551312;1.803267
Olivier de Sesmaisons;1894;parliament;Saumur;Maine-et-Loire;49;Pays de la Loire;47.247115;-0.073136
Ramon Fernandez;1894;executive;Paris 17;Paris;75;Île-de-France;48.88784408569336;2.3070974349975586
Pierre Clarac;1894;scholar;Bordeaux;Gironde;33;Nouvelle-Aquitaine;44.851897;-0.587877
Charles Oberling;1895;scholar;Metz;Moselle;57;Grand Est;49.108385;6.194891
Jean Berthoin;1895;minister;Enghien-les-bains;Val-d'Oise;95;Île-de-France;48.971047;2.305251
Lucien Carbon;1895;parliament;Caen;Calvados;14;Normandie;49.189126;-0.337074
Lucien Harmant;1895;parliament;Denain;Nord;59;Hauts-de-France;50.330176;3.392754
Marcel Bataillon;1895;scholar;Dijon;Côte-d'Or;21;Bourgogne-Franche-Comté;47.331848;5.033601
Maurice Delory;1895;parliament;Maizieres;Pas-de-Calais;62;Hauts-de-France;50.328282;2.480042
Maurice Lemaire;1895;parliament;Gerbepal;Vosges;88;Grand Est;48.126363;6.914925
Narcisse Pavot;1895;parliament;Vertain;Nord;59;Hauts-de-France;50.2109;3.52381
Pierre, Alexandre, Just Monnerville;1895;parliament;Cayenne;Guyane;973;Guyane;4.925248;-52.311583
Pierre, Jules Cot;1895;parliament;Grenoble;Isère;38;Auvergne-Rhône-Alpes;45.192514;5.716179
Raoul Bleuse;1895;parliament;Ribemont;Aisne;2;Hauts-de-France;49.794907;3.454161
René, Louis Cance;1895;parliament;Laroquebrou;Cantal;15;Auvergne-Rhône-Alpes;44.968952;2.195016
Robert Courrier;1895;scholar;Saxon-sion;Meurthe-et-Moselle;54;Grand Est;48.427092;6.079481
Roger Noiret;1895;parliament;Prosnes;Marne;51;Grand Est;49.190795;4.292836
Paul Arrighi;1895;scholar;Renno;Corse-du-Sud;2A;Corse;41.708523;9.158245
Alain Le Marc'Hadour;1896;parliament;Landeda;Finistère;29;Bretagne;48.587296;-4.593926
Ernest Voyer;1896;parliament;Saint-Loup-Lamairé;Deux-Sèvres;79;Nouvelle-Aquitaine;46.662922;-0.24546
Georges Estienne;1896;executive;Nice;Alpes-Maritimes;6;Provence-Alpes-Côte d'Azur;43.71273;7.25092
Henri Duterne;1896;parliament;Lille;Nord;59;Hauts-de-France;50.646872;3.054694
Jean Le Duc;1896;executive;Paris 16;Paris;75;Île-de-France;48.86101150512695;2.2834136486053467
Louis Delaporte;1896;parliament;Criel-sur-mer;Seine-Maritime;76;Normandie;43.72961;7.386506
Lucien de Gracia;1896;parliament;Arcachon;Gironde;33;Nouvelle-Aquitaine;44.651462;-1.173981
Roger Dion;1896;scholar;Argenton-sur-creuse;Indre;36;Centre-Val de Loire;46.580769;1.496044
Alexandre Camino;1897;parliament;Cambo-les-bains;Pyrénées-Atlantiques;64;Nouvelle-Aquitaine;43.357627;-1.401627
André Marie;1897;parliament;Honfleur;Calvados;14;Normandie;49.419548;0.266398
André, Joseph, Alexandre, François Burlot;1897;parliament;Saint-brieuc;Côtes-d'Armor;22;Bretagne;48.515912;-2.768667
Arthur Ramette;1897;parliament;Caudry;Nord;59;Hauts-de-France;50.121477;3.419012
Cerf Lurie;1897;parliament;Sete;Hérault;34;Occitanie;43.409698;3.716445
Charles Chopin;1897;parliament;Hesdigneul-les-bethune;Pas-de-Calais;62;Hauts-de-France;50.503947;2.596742
Charles Dutheil;1897;parliament;Beziers;Hérault;34;Occitanie;43.362125;3.22272
Charles Guthmüller;1897;parliament;Tassin-la-Demi-Lune;Rhône;69;Auvergne-Rhône-Alpes;45.704442;4.793596
Charles Magne;1897;parliament;Gannat;Allier;3;Auvergne-Rhône-Alpes;46.097817;3.178862
Denis Padovani;1897;parliament;Berre-l'etang;Bouches-du-Rhône;13;Provence-Alpes-Côte d'Azur;43.486551;5.134249
Edmond Pezé;1897;parliament;Paris 9;Paris;75;Île-de-France;48.872615814208984;2.340359926223755
Edouard Lebas;1897;parliament;Cherbourg-en-Cotentin;Manche;50;Normandie;49.642677;-1.63422
Émile Decré;1897;executive;Nantes;Loire-Atlantique;44;Pays de la Loire;47.239367;-1.555335
Gabriel de Carville;1897;parliament;Boisyvon;Manche;50;Normandie;48.802784;-1.131866
Jacques Vendroux;1897;parliament;Calais;Pas-de-Calais;62;Hauts-de-France;50.942491;1.8609
Jean Baylot;1897;parliament;Pau;Pyrénées-Atlantiques;64;Nouvelle-Aquitaine;43.313503;-0.343106
Marcel Falala;1897;parliament;Charency-vezin;Meurthe-et-Moselle;54;Grand Est;49.469489;5.504686
Marcel Roclore;1897;parliament;Saulieu;Côte-d'Or;21;Bourgogne-Franche-Comté;47.28075;4.229489
Marie-Joseph Pernock;1897;parliament;Le lorrain;Martinique;972;Martinique;14.820643;-61.061996
Maurice Cassez;1897;parliament;La couture;Pas-de-Calais;62;Hauts-de-France;50.537188;1.72917
Pierre Courant;1897;parliament;Le Havre;Seine-Maritime;76;Normandie;49.507345;0.129995
Pierre de Sainte-Marie;1897;parliament;Saint-loup;Tarn-et-Garonne;82;Occitanie;44.084815;0.858298
Raymond Poutier;1897;parliament;Rochefort;Charente-Maritime;17;Nouvelle-Aquitaine;45.941002;-0.977705
René Lecocq;1897;parliament;Wallers;Nord;59;Hauts-de-France;50.367796;3.3955
Roger Bertholleau;1897;parliament;Saint-Martin-la-Pallu;Vienne;86;Nouvelle-Aquitaine;46.744113;0.32539
Yves Rannou;1897;executive;Guingamp;Côtes-d'Armor;22;Bretagne;48.560722;-3.153394
Alfred Sauvy;1898;scholar;Villeneuve-de-la-raho;Pyrénées-Orientales;66;Occitanie;42.639539;2.909431
Edouard Corniglion-Molinier;1898;parliament;Nice;Alpes-Maritimes;6;Provence-Alpes-Côte d'Azur;43.674468;7.196837
Ernest Rouxel;1898;parliament;Corseul;Côtes-d'Armor;22;Bretagne;48.482151;-2.171878
Gabriel Bourgund;1898;parliament;Langres;Haute-Marne;52;Grand Est;47.843844;5.542515
Gaston Perrot;1898;parliament;Sens;Yonne;89;Bourgogne-Franche-Comté;48.199466;3.275391
Georges Dumézil;1898;scholar;Paris 12;Paris;75;Île-de-France;48.836666107177734;2.403441905975342
Georges Laederich;1898;executive;Epinal;Vosges;88;Grand Est;48.170226;6.484892
Henri Martel;1898;parliament;Bruay-sur-escaut;Nord;59;Hauts-de-France;50.398197;3.540327
Jacques Baratte;1898;executive;Neuilly-sur-Seine;Hauts-de-Seine;92;Île-de-France;48.886191;2.265869
Jacques Lacroix;1898;executive;Gagny;Seine-Saint-Denis;93;Île-de-France;48.881906;2.545651
Jean-Paul Palewski;1898;parliament;Paris 9;Paris;75;Île-de-France;48.872615814208984;2.340359926223755
Jules Houcke;1898;parliament;Nieppe;Nord;59;Hauts-de-France;50.701598;2.83722
Just Évrard;1898;parliament;Lens;Pas-de-Calais;62;Hauts-de-France;50.419122;3.027127
Louis Jacquinot;1898;minister;Gondrecourt-le-chateau;Meuse;55;Grand Est;48.490259;5.445439
Madeleine Martinache;1898;parliament;Lille;Nord;59;Hauts-de-France;50.646872;3.054694
Maxime Roustan;1898;parliament;Vallauris;Alpes-Maritimes;6;Provence-Alpes-Côte d'Azur;43.5767;7.063426
Médard Albrand;1898;parliament;Petit-canal;Guadeloupe;971;Guadeloupe;16.378394;-61.454783
Philippe Danilo;1898;parliament;Les fougerets;Morbihan;56;Bretagne;48.064856;-2.394208
Robert Lacoste;1898;parliament;Azerat;Dordogne;24;Nouvelle-Aquitaine;45.150787;1.105056
Xavier Trellu;1898;parliament;Douarnenez;Finistère;29;Bretagne;48.082744;-4.325157
Henri Gouhier;1898;scholar;Auxerre;Yonne;89;Bourgogne-Franche-Comté;47.791247;3.579905
Jean Boutière;1898;scholar;Mallemort;Bouches-du-Rhône;13;Provence-Alpes-Côte d'Azur;43.722795;5.178247
Marcel Abraham;1898;scholar;Paris 16;Paris;75;Île-de-France;48.856305;2.267032
Paul Delmas-Marsalet;1898;scholar;Dax;Landes;40;Nouvelle-Aquitaine;43.700723;-1.06016
Alexandre Dumas;1899;senat;Villers-cotterets;Aisne;2;Hauts-de-France;49.250899;3.088746
Alexis Méhaignerie;1899;parliament;Balaze;Ille-et-Vilaine;35;Bretagne;48.143156;-1.177107
André Cornu;1899;senat;Gap;Hautes-Alpes;5;Provence-Alpes-Côte d'Azur;44.563233;6.076778
André Picard;1899;senat;Marcigny-sous-thil;Côte-d'Or;21;Bourgogne-Franche-Comté;47.392308;4.379228
Antonin, Jean, André Tirefort;1899;parliament;Ferrières;Hautes-Pyrénées;65;Occitanie;48.549999;6.3
Edmond Michelet;1899;minister;Paris 19;Paris;75;Île-de-France;48.88661575317383;2.384809970855713
François Clamens;1899;parliament;Limoux;Aude;11;Occitanie;43.056699;2.215687
Gabriel Tellier;1899;senat;Boulogne-sur-mer;Pas-de-Calais;62;Hauts-de-France;50.726334;1.607492
Gaston Girard;1899;parliament;Guilly;Loiret;45;Centre-Val de Loire;47.804164;2.278403
Gaston Monnerville;1899;senat;Cayenne;Guyane;973;Guyane;4.925248;-52.311583
Georges, Augustin Bidault;1899;parliament;Moulins;Allier;3;Auvergne-Rhône-Alpes;46.565328;3.333038
Henri Loste;1899;senat;Bordeaux;Gironde;33;Nouvelle-Aquitaine;44.851897;-0.587877
Henri Paumelle;1899;senat;Val-de-Scie;Seine-Maritime;76;Normandie;49.717936;1.083941
Hervé Nader;1899;parliament;Quimper;Finistère;29;Bretagne;48.014119;-4.092762
Hubert Ruffe;1899;parliament;Penne-d'agenais;Lot-et-Garonne;47;Nouvelle-Aquitaine;44.38019;0.805168
Jacques de Maupeou;1899;senat;Nantes;Loire-Atlantique;44;Pays de la Loire;47.239367;-1.555335
Jacques Verneuil;1899;senat;Cozes;Charente-Maritime;17;Nouvelle-Aquitaine;45.578371;-0.824192
Jean Léonetti;1899;minister;Propriano;Corse-du-Sud;2A;Corse;41.675979;8.904512
Jean-Charles Privet;1899;parliament;Le creusot;Saône-et-Loire;71;Bourgogne-Franche-Comté;46.796374;4.420546
Jules Fil;1899;senat;Bize-minervois;Aude;11;Occitanie;43.32439;2.864624
Jules, Abdon Fil;1899;parliament;Bize-minervois;Aude;11;Occitanie;43.32439;2.864624
Louis Douineau;1899;parliament;Divatte-sur-Loire;Loire-Atlantique;44;Pays de la Loire;47.2716;-1.3389
Louis Maillot;1899;parliament;Le barboux;Doubs;25;Bourgogne-Franche-Comté;47.123658;6.722343
Marcel Guislain;1899;senat;Nomain;Nord;59;Hauts-de-France;50.501172;3.244196
Marcel, Xavier Massot;1899;parliament;La-motte-du-caire;Alpes-de-Haute-Provence;4;Provence-Alpes-Côte d'Azur;44.310626;6.040403
Marie-Hélène Cardot;1899;senat;Tetaigne;Ardennes;8;Grand Est;49.651552;5.129487
Maurice Jordan;1899;executive;Orleans;Loiret;45;Centre-Val de Loire;47.873569;1.911358
Paul Béchard;1899;parliament;Ales;Gard;30;Occitanie;44.125356;4.089242
Paul Godonneche;1899;parliament;Latour-d'auvergne;Puy-de-Dôme;63;Auvergne-Rhône-Alpes;45.552967;2.745434
Paul Minot;1899;senat;Nevers;Nièvre;58;Bourgogne-Franche-Comté;46.988535;3.160778
Paul Symphor;1899;senat;Le robert;Martinique;972;Martinique;15.90379;-61.24908
Pierre Forest;1899;parliament;Vieux-mesnil;Nord;59;Hauts-de-France;50.26191;3.867335
Raymond Bousquet;1899;parliament;Paris 9;Paris;75;Île-de-France;48.872615814208984;2.340359926223755
Raymond Pinchard;1899;senat;Saint-dizier;Haute-Marne;52;Grand Est;48.638926;4.957021
Raymond Tézier;1899;parliament;Lyon;Rhône;69;Auvergne-Rhône-Alpes;45.733873;4.828499
Raymond, Paul, Victor Boisdé;1899;parliament;Chantonnay;Vendée;85;Pays de la Loire;46.670663;-1.049215
René Rousselot;1899;parliament;Nicey-sur-aire;Meuse;55;Grand Est;48.884866;5.334486
Robert Aylé;1899;executive;Paris 17;Paris;75;Île-de-France;48.887702;2.304844
Roger Houdet;1899;minister;Angers;Maine-et-Loire;49;Pays de la Loire;47.467471;-0.561615
André Dulin;1900;senat;Langoiran;Gironde;33;Nouvelle-Aquitaine;44.707937;-0.37282
André Dupont-Sommer;1900;scholar;Marnes-la-coquette;Hauts-de-Seine;92;Île-de-France;48.835162;2.170097
André Halbout;1900;parliament;Vire Normandie;Calvados;14;Normandie;48.842243;-0.886016
André Morice;1900;senat;Nantes;Loire-Atlantique;44;Pays de la Loire;47.239367;-1.555335
Antoine, Martin Sérafini;1900;parliament;Ajaccio;Corse-du-Sud;2A;Corse;41.93368;8.715325
Armand Bastit-St Martin;1900;senat;Cavignac;Gironde;33;Nouvelle-Aquitaine;45.09736;-0.383126
Augustin Bordage;1900;parliament;Vasles;Deux-Sèvres;79;Nouvelle-Aquitaine;46.581107;-0.024918
Augustin, Jean, Alexis, Félix Chauvet;1900;parliament;Salins;Cantal;15;Auvergne-Rhône-Alpes;45.19;2.39522
Dominique, Antoine Laurelli;1900;parliament;Isolaccio-di-fiumorbo;Haute-Corse;2B;Corse;41.997519;9.295922
Edmond Barrachin;1900;senat;Paris 8;Paris;75;Île-de-France;48.87311553955078;2.310023307800293
Edouard, Denis, Marie, Joseph Alliot;1900;parliament;Wassigny;Aisne;2;Hauts-de-France;50.013785;3.598748
Emile Janvier;1900;parliament;Paris 6;Paris;75;Île-de-France;48.85261154174805;2.3332111835479736
Fernand Auberger;1900;senat;Rocles;Lozère;48;Occitanie;44.713978;3.782274
Florimond Girard;1900;parliament;Saint-Julien-de-Maurienne;Savoie;73;Auvergne-Rhône-Alpes;45.283329;6.35
François Monsarrat;1900;senat;Verdalle;Tarn;81;Occitanie;43.506311;2.170581
Frédéric Joliot;1900;scholar;Paris 16;Paris;75;Île-de-France;48.86101150512695;2.2834136486053467
Gustave Philippon;1900;senat;Limoges;Haute-Vienne;87;Nouvelle-Aquitaine;45.856159;1.221254
Guy Chavanne;1900;parliament;Gouvernes;Seine-et-Marne;77;Île-de-France;48.871324;2.70032
Henri Jouffroy;1900;parliament;Chissey;Jura;39;Bourgogne-Franche-Comté;47.024785;5.723684
Henri Terré;1900;parliament;Paris 17;Paris;75;Île-de-France;48.88784408569336;2.3070974349975586
Jacques Rastoin;1900;senat;Marseille;Bouches-du-Rhône;13;Provence-Alpes-Côte d'Azur;43.282;5.405
Jean d'Aulan;1900;executive;Savasse;Drôme;26;Auvergne-Rhône-Alpes;44.608759;4.772904
Jean de Bagneux;1900;senat;Parigné;Ille-et-Vilaine;35;Bretagne;48.433331;-1.2
Jean Laval;1900;scholar;Saint-pardoux-le-vieu;Corrèze;19;Nouvelle-Aquitaine;45.597529;2.277006
Jean Lhospied;1900;senat;Pougues-les-eaux;Nièvre;58;Bourgogne-Franche-Comté;47.07434;3.099288
Jean Sourbet;1900;parliament;Morizes;Gironde;33;Nouvelle-Aquitaine;44.613383;-0.093893
Jean-Marie Louvel;1900;senat;La ferte mace;Orne;61;Normandie;48.579385;-0.361903
Jean-Yves Chapalain;1900;parliament;Quimper;Finistère;29;Bretagne;48.014119;-4.092762
Joseph Pinvidic;1900;parliament;Landivisiau;Finistère;29;Bretagne;48.513532;-4.062033
Julien Brunhes;1900;senat;Clermont-ferrand;Puy-de-Dôme;63;Auvergne-Rhône-Alpes;45.786671;3.107055
Ladislas du Luart;1900;senat;Paris 16;Paris;75;Île-de-France;48.86101150512695;2.2834136486053467
Léon Leblanc;1900;executive;La couture-boussey;Eure;27;Normandie;48.901863;1.396544
Louis Perillier;1900;parliament;Nimes;Gard;30;Occitanie;43.814652;4.356289
Lucien Perdereau;1900;senat;Bricy;Loiret;45;Centre-Val de Loire;47.999838;1.77959
Marcel Giraud;1900;scholar;Nice;Alpes-Maritimes;6;Provence-Alpes-Côte d'Azur;43.71273;7.25092
Maurice Thorez;1900;parliament;Noyelles-godault;Pas-de-Calais;62;Hauts-de-France;50.424522;2.996805
Max Monichon;1900;senat;Mios;Gironde;33;Nouvelle-Aquitaine;44.623515;-0.902244
Pierre Brun;1900;senat;Paris 16;Paris;75;Île-de-France;48.86101150512695;2.2834136486053467
René Debesson;1900;senat;Bezenet;Allier;3;Auvergne-Rhône-Alpes;46.329371;2.846158
René Ithurbide;1900;parliament;Bayonne;Pyrénées-Atlantiques;64;Nouvelle-Aquitaine;43.488989;-1.475553
Roger Raulet;1900;parliament;Reims;Marne;51;Grand Est;49.250948;4.055595
Alfred Jauffret;1900;scholar;Aix-en-provence;Bouches-du-Rhône;13;Provence-Alpes-Côte d'Azur;43.541369;5.406124
Michel Machebœuf;1900;scholar;Chatel-guyon;Puy-de-Dôme;63;Auvergne-Rhône-Alpes;45.921997;3.060949
Pierre Mesnard;1900;scholar;Surgeres;Charente-Maritime;17;Nouvelle-Aquitaine;46.103571;-0.756848
William Seston;1900;scholar;Lasalle;Gard;30;Occitanie;43.814652;4.356289
Albert Dehen;1901;parliament;Lille;Nord;59;Hauts-de-France;50.646872;3.054694
Albert Dehen;1901;executive;Lille;Nord;59;Hauts-de-France;50.630951;3.045391
Alex Roubert;1901;senat;La colle-sur-loup;Alpes-Maritimes;6;Provence-Alpes-Côte d'Azur;43.686414;7.103161
André Bruneau;1901;senat;Beaumont-sur-sarthe;Sarthe;72;Pays de la Loire;48.223409;0.119925
André Chareyre;1901;parliament;Chomerac;Ardèche;7;Auvergne-Rhône-Alpes;44.709906;4.67071
André Malraux;1901;minister;Paris 18;Paris;75;Île-de-France;48.8870221;2.3478318
André Messager;1901;senat;Montlucon;Allier;3;Auvergne-Rhône-Alpes;46.342307;2.604952
André Plantain;1901;parliament;Conches-en-Ouche;Eure;27;Normandie;49.020795;1.120922
André, Emmanuel Beauguitte;1901;parliament;Paris 3;Paris;75;Île-de-France;48.86336517333984;2.358234405517578
Antoine Beguere;1901;senat;Lourdes;Hautes-Pyrénées;65;Occitanie;43.093555;-0.049614
Antoine Guitton;1901;parliament;Chanverrie;Vendée;85;Pays de la Loire;46.824439;-1.106888
Antoine Lacroix;1901;parliament;Saint-Hilaire;Allier;3;Auvergne-Rhône-Alpes;48.433331;2.06667
Armand Cachat;1901;parliament;Meillerie;Haute-Savoie;74;Auvergne-Rhône-Alpes;46.407291;6.720016
Auguste Pinton;1901;senat;Lyon;Rhône;69;Auvergne-Rhône-Alpes;45.733873;4.828499
Charles Durand;1901;senat;Bazoches;Nièvre;58;Bourgogne-Franche-Comté;47.38331;3.78333
Charles Lamarque-Cando;1901;parliament;Onard;Landes;40;Nouvelle-Aquitaine;43.779245;-0.835868
Charles Laurent-Thouverey;1901;senat;Dole;Jura;39;Bourgogne-Franche-Comté;47.077883;5.493658
Emile Hugues;1901;senat;Vence;Alpes-Maritimes;6;Provence-Alpes-Côte d'Azur;43.720988;7.109219
Eugène Van Der Meersch;1901;parliament;Croix;Nord;59;Hauts-de-France;50.6802124;3.1564365
Fernand Esseul;1901;senat;La pommeraye;Calvados;14;Normandie;49.228157;-0.365195
Fernand Grenier;1901;parliament;Tourcoing;Nord;59;Hauts-de-France;50.720797;3.157799
Florian Bruyas;1901;senat;Lyon;Rhône;69;Auvergne-Rhône-Alpes;45.733873;4.828499
Gabriel Miossec;1901;parliament;Audierne;Finistère;29;Bretagne;48.40375;-4.46397
Gaston Palewski;1901;minister;Paris 9;Paris;75;Île-de-France;48.872615814208984;2.340359926223755
Georges Barillon;1901;parliament;Sennecçay;Cher;18;Centre-Val de Loire;46.950001;2.45
Georges Cogniot;1901;senat;Montigny-les-cherlieu;Haute-Saône;70;Bourgogne-Franche-Comté;47.797975;5.811089
Jacques Faggianelli;1901;senat;Bastia;Haute-Corse;2B;Corse;42.687608;9.435179
Jacques Warnier;1901;executive;Reims;Marne;51;Grand Est;49.250948;4.055595
Jean Aubin;1901;senat;Saint-etienne-le-laus;Hautes-Alpes;5;Provence-Alpes-Côte d'Azur;44.508213;6.157903
Jean Bene;1901;senat;Pezenas;Hérault;34;Occitanie;43.456901;3.418941
Jean Dardé;1901;parliament;Montjoi;Tarn-et-Garonne;82;Occitanie;44.196652;0.919805
Jean Deltimple;1901;parliament;Agen;Lot-et-Garonne;47;Nouvelle-Aquitaine;44.204045;0.615654
Jean Deshors;1901;parliament;Blanzac;Haute-Vienne;87;Nouvelle-Aquitaine;46.13839;1.111694
Jean Roche;1901;scholar;Sorgues;Vaucluse;84;Provence-Alpes-Côte d'Azur;44.009794;4.877015
Jean, Emile Lainé;1901;parliament;Pont-audemer;Eure;27;Normandie;49.348034;0.526847
Joseph Brayard;1901;senat;Vescours;Ain;1;Auvergne-Rhône-Alpes;46.472276;5.028676
Léon David;1901;senat;Roquevaire;Bouches-du-Rhône;13;Provence-Alpes-Côte d'Azur;43.345169;5.602716
Louis  Leprince-Ringuet;1901;scholar;Ales;Gard;30;Occitanie;44.125356;4.089242
Louis Charvet;1901;executive;Chambery;Savoie;73;Auvergne-Rhône-Alpes;45.577896;5.898555
Louis Joxe;1901;minister;Bourg-la-reine;Hauts-de-Seine;92;Île-de-France;48.779888;2.316407
Louis Roche-Defrance;1901;parliament;Tournon-sur-Rhône;Ardèche;7;Auvergne-Rhône-Alpes;45.237786;4.671812
Lucien Milhau;1901;parliament;Carcassonne;Aude;11;Occitanie;43.206781;2.349415
Marceau Laurent;1901;parliament;Wahagnies;Nord;59;Hauts-de-France;50.485266;3.025971
Maurice Georges;1901;parliament;Lerouville;Meuse;55;Grand Est;48.788573;5.547844
Max Flechet;1901;senat;Chazelles-sur-lyon;Loire;42;Auvergne-Rhône-Alpes;45.626096;4.373732
Michel Champleboux;1901;senat;Volvic;Puy-de-Dôme;63;Auvergne-Rhône-Alpes;45.863245;3.023059
Paul Maridet;1901;parliament;Saint-germain-des-fosses;Allier;3;Auvergne-Rhône-Alpes;46.197819;3.433222
Paul Pauly;1901;senat;Aubusson;Creuse;23;Nouvelle-Aquitaine;45.948902;2.174535
Paul Vignaux;1901;parliament;Toulouse;Haute-Garonne;31;Occitanie;43.619765;1.405391
Pierre Dufour;1901;parliament;Dompierre-les-ormes;Saône-et-Loire;71;Bourgogne-Franche-Comté;46.357283;4.482394
Raymond Réthoré;1901;parliament;Lire;Maine-et-Loire;49;Pays de la Loire;47.343206;-1.168272
René Capitant;1901;minister;La tronche;Isère;38;Auvergne-Rhône-Alpes;45.202734;5.735093
René Leduc;1901;parliament;Paris 18;Paris;75;Île-de-France;48.8870221;2.3478318
René Pleven;1901;parliament;Rennes;Ille-et-Vilaine;35;Bretagne;48.111151;-1.686832
René Pléven;1901;minister;Rennes;Ille-et-Vilaine;35;Bretagne;48.110899;-1.68365
Robert Bouvard;1901;senat;Aurec-sur-loire;Haute-Loire;43;Auvergne-Rhône-Alpes;45.367893;4.203088
Sylvain Maillols;1901;senat;Corbere;Pyrénées-Orientales;66;Occitanie;42.657219;2.664813
Yves Villard;1901;senat;Gracay;Cher;18;Centre-Val de Loire;47.141802;1.844841
Jean Roche;1901;scholar;Sorgues;Vaucluse;84;Provence-Alpes-Côte d'Azur;44.009794;4.877015
Pierre Donzelot;1901;scholar;Valentigney;Doubs;25;Bourgogne-Franche-Comté;47.465945;6.829692
Alexandre Brugerolle de Fraissinette;1902;parliament;Palladuc;Puy-de-Dôme;63;Auvergne-Rhône-Alpes;45.886719;3.624064
Alphonse Le Gallo;1902;parliament;Indre;Loire-Atlantique;44;Pays de la Loire;47.1994;-1.6700
Bertrand Denis;1902;parliament;Saint-georges-buttavent;Mayenne;53;Pays de la Loire;48.300847;-0.711214
Clément Bourne;1902;parliament;Jarcieu;Isère;38;Auvergne-Rhône-Alpes;45.337595;4.95219
Edouard Frédéric-Dupont;1902;parliament;Paris 7;Paris;75;Île-de-France;48.857215881347656;2.3098840713500977
Emile Hémain;1902;parliament;Rive-de-gier;Loire;42;Auvergne-Rhône-Alpes;45.522199;4.61666
Fernand Braudel;1902;scholar;Gondrecourt-le-chateau;Meuse;55;Grand Est;48.491135;5.467285
François Minard;1902;senat;Pierrefitte-sur-loire;Allier;3;Auvergne-Rhône-Alpes;46.498539;3.808806
Georges Coudray;1902;parliament;Evran;Côtes-d'Armor;22;Bretagne;48.3833333;-1.9797222222222224
Gérard Minvielle;1902;senat;Geaune;Landes;40;Nouvelle-Aquitaine;43.635282;-0.373287
Guy de La Vasselais;1902;senat;Colombes;Hauts-de-Seine;92;Île-de-France;48.922535;2.247799
Henri Lassourd;1902;parliament;Saint-Briac-sur-Mer;Ille-et-Vilaine;35;Bretagne;48.633331;-2.13333
Henri Longuet;1902;parliament;Brest;Finistère;29;Bretagne;48.390387;-4.501759
Henri-Charles Puech;1902;scholar;Montpellier;Hérault;34;Occitanie;43.610476;3.87048
Hervé Laudrin;1902;parliament;Locmine;Morbihan;56;Bretagne;47.880895;-2.835186
Jacques Fourcade;1902;parliament;Paris 9;Paris;75;Île-de-France;48.872615814208984;2.340359926223755
Jacques, Jules, Marie, Joseph Le Roy Ladurie;1902;parliament;Saint-mihiel;Meuse;55;Grand Est;48.891687;5.542342
Jean Albert-Sorel;1902;parliament;Paris 6;Paris;75;Île-de-France;48.85261154174805;2.3332111835479736
Jean Benedetti;1902;executive;Marseille;Bouches-du-Rhône;13;Provence-Alpes-Côte d'Azur;43.282;5.405
Jean Gagé;1902;scholar;Nainville-les-roches;Essonne;91;Île-de-France;48.505229;2.49527
Jean Pécastaing;1902;parliament;Gaas;Landes;40;Nouvelle-Aquitaine;46.6144;-1.0333
Louis Noilou;1902;parliament;Saint-Symphorien;Ille-et-Vilaine;35;Bretagne;44.42889;-0.488333
Marcel Champeix;1902;senat;Masseret;Corrèze;19;Nouvelle-Aquitaine;45.541895;1.523635
Marcel Molle;1902;senat;Aubenas;Ardèche;7;Auvergne-Rhône-Alpes;44.612671;4.391775
Paul Mus;1902;scholar;Bourges;Cher;18;Centre-Val de Loire;47.082882;2.402294
Paul, Calixte Valentino;1902;parliament;Pointe-a-pitre;Guadeloupe;971;Guadeloupe;16.23619;-61.537759
Pierre de La Gontrie;1902;senat;La Rochefoucauld-en-Angoumois;Charente;16;Nouvelle-Aquitaine;46.171365;-1.138751
Pierre Litoux;1902;parliament;Saint-lyphard;Loire-Atlantique;44;Pays de la Loire;47.400002;-2.3
Pierre Marquand-Gairard;1902;parliament;Marseille;Bouches-du-Rhône;13;Provence-Alpes-Côte d'Azur;43.279396;5.381923
Raymond Barbet;1902;parliament;Chartres;Eure-et-Loir;28;Centre-Val de Loire;48.435568;1.48376
Robert Blum;1902;executive;Paris 6;Paris;75;Île-de-France;48.849268;2.330883
Robert Brettes;1902;parliament;Paris 6;Paris;75;Île-de-France;48.85261154174805;2.3332111835479736
Robert Minder;1902;scholar;Wasselonne;Bas-Rhin;67;Grand Est;48.638764;7.442063
Roger Delagnes;1902;senat;Montpellier;Hérault;34;Occitanie;43.610476;3.87048
Victor de Metz;1902;executive;Vesoul;Haute-Saône;70;Bourgogne-Franche-Comté;47.628692;6.157979
Victor Golvan;1902;senat;Gavres;Morbihan;56;Bretagne;47.69491;-3.352275
Wilfrid Baumgartner;1902;minister;Paris 7;Paris;75;Île-de-France;48.857215881347656;2.3098840713500977
Marc Ancel;1902;scholar;Izeste;Pyrénées-Atlantiques;64;Nouvelle-Aquitaine;43.090694;-0.426825
Maurice Bayen;1902;scholar;Metz;Moselle;57;Grand Est;49.108385;6.194891
André Valabrègue;1903;parliament;Paris 16;Paris;75;Île-de-France;48.86101150512695;2.2834136486053467
André, Maurice, Marie, Georges Bégouin;1903;parliament;Réaux-sur-Trèfle;Charente-Maritime;17;Nouvelle-Aquitaine;45.474327;-0.383126
Arthur, Emile Cornette;1903;parliament;Quarouble;Nord;59;Hauts-de-France;50.390977;3.626366
Auguste Cousin;1903;senat;Catteville;Manche;50;Normandie;49.357939;-1.561613
Auguste, Elie, Marie Damette;1903;parliament;Hazebrouck;Nord;59;Hauts-de-France;50.719443;2.531796
Charles Allies;1903;senat;Castanet-le-haut;Hérault;34;Occitanie;43.686075;2.954505
Charles Naveau;1903;senat;Ramousies;Nord;59;Hauts-de-France;50.115358;4.035188
Ernest Bouchet;1903;parliament;Colombiers;Vienne;86;Nouvelle-Aquitaine;46.983348;0.604205
Ernest Reptin;1903;senat;Bonnieres;Pas-de-Calais;62;Hauts-de-France;50.240324;2.274816
François Billoux;1903;parliament;Saint-romain-la-motte;Loire;42;Auvergne-Rhône-Alpes;46.081025;3.993763
François Codet;1903;parliament;Saint-brieuc;Côtes-d'Armor;22;Bretagne;48.515912;-2.768667
François Duval;1903;senat;Le vauclin;Martinique;972;Martinique;14.544529;-60.863866
François Perroux;1903;scholar;Lyon;Rhône;69;Auvergne-Rhône-Alpes;45.733873;4.828499
François, Claude, Eléonor Bénard;1903;parliament;Feuquieres;Oise;60;Hauts-de-France;49.648394;1.843105
Gabriel Montpied;1903;senat;Clermont-ferrand;Puy-de-Dôme;63;Auvergne-Rhône-Alpes;45.786671;3.107055
Georges Badosa;1903;executive;Perpignan;Pyrénées-Orientales;66;Occitanie;42.701507;2.902811
Henri Cornat;1903;senat;Luneville;Meurthe-et-Moselle;54;Grand Est;48.593492;6.497808
Henri Desseigne;1903;senat;Cuinzier;Loire;42;Auvergne-Rhône-Alpes;46.123472;4.269125
Henri Rey;1903;parliament;Pont-aven;Finistère;29;Bretagne;47.874267;-3.762632
Jacques Masteau;1903;senat;Poitiers;Vienne;86;Nouvelle-Aquitaine;46.586578;0.35668
Jacques Vassor;1903;senat;Tours;Indre-et-Loire;37;Centre-Val de Loire;47.395476;0.695848
Jean Renaudin;1903;executive;Charleville-Mézières;Ardennes;8;Grand Est;49.7735712;4.7206939
Joseph Rosselli;1903;parliament;Belleville-en-Beaujolais;Rhône;69;Auvergne-Rhône-Alpes;46.10957717895508;4.745631694793701
Léon Ayme;1903;parliament;Brantes;Vaucluse;84;Provence-Alpes-Côte d'Azur;44.192484;5.332708
Léonce Franco;1903;parliament;Vannes;Morbihan;56;Bretagne;47.659971;-2.752192
Liévin Danel;1903;parliament;Lille;Nord;59;Hauts-de-France;50.646872;3.054694
Marcel Guyot;1903;parliament;Moulins;Allier;3;Auvergne-Rhône-Alpes;46.565328;3.333038
Marcelle Delabie Née Herbelin;1903;parliament;Gorcy;Meurthe-et-Moselle;54;Grand Est;49.538395;5.67926
Maurice Bardet;1903;parliament;Paris 11;Paris;75;Île-de-France;48.86030960083008;2.3786137104034424
Noël Barrot;1903;parliament;Saint-etienne;Loire;42;Auvergne-Rhône-Alpes;45.430195;4.370045
Paul Ihuel;1903;parliament;Pontivy;Morbihan;56;Bretagne;48.065625;-2.975174
Paul Lemerle;1903;scholar;Paris 12;Paris;75;Île-de-France;48.836666107177734;2.403441905975342
Pierre Michelin;1903;executive;Royat;Puy-de-Dôme;63;Auvergne-Rhône-Alpes;45.758891;3.045271
Raymond Bossus;1903;senat;Paris 20;Paris;75;Île-de-France;48.863311767578125;2.3996946811676025
Raymond Guyot;1903;senat;Auxerre;Yonne;89;Bourgogne-Franche-Comté;47.791247;3.579905
René Malbrant;1903;parliament;Dangé-Saint-Romain;Vienne;86;Nouvelle-Aquitaine;46.917057;0.59289
René Quentier;1903;parliament;Chambly;Oise;60;Hauts-de-France;49.170042;2.244676
René, Marie, Alphonse, Charles Capitant;1903;parliament;La tronche;Isère;38;Auvergne-Rhône-Alpes;45.202734;5.735093
Roger Carcassonne;1903;senat;Salon-de-provence;Bouches-du-Rhône;13;Provence-Alpes-Côte d'Azur;43.6377;5.062036
Roger Fulchiron;1903;parliament;Saint-etienne;Loire;42;Auvergne-Rhône-Alpes;45.430195;4.370045
Victor Provo;1903;senat;Wattrelos;Nord;59;Hauts-de-France;50.711887;3.218738
Bertrand de Jouvenel;1903;scholar;Paris 9;Paris;75;Île-de-France;48.87727;2.33371
Henry Corbin;1903;scholar;Paris 7;Paris;75;Île-de-France;48.853954;2.312864
Jean Cavaillès;1903;scholar;Saint-maixent-l'ecole;Deux-Sèvres;79;Nouvelle-Aquitaine;46.412912;-0.206888
Jean Schneider;1903;scholar;Metz;Moselle;57;Grand Est;49.108385;6.194891
Louis Glangeaud;1903;scholar;Tulle;Corrèze;19;Nouvelle-Aquitaine;45.267177;1.764073
Léon Malaprade;1903;scholar;Dieppe;Seine-Maritime;76;Normandie;49.478927;1.047849
René Pintard;1903;scholar;Paris 8;Paris;75;Île-de-France;48.873998;2.31129
Vladimir Jankélévitch;1903;scholar;Bourges;Cher;18;Centre-Val de Loire;47.561069;2.432796
André Lallemand;1904;scholar;Cirey-les-pontailler;Côte-d'Or;21;Bourgogne-Franche-Comté;47.309437;5.296085
Antoine Quinson;1904;parliament;Beziers;Hérault;34;Occitanie;43.362125;3.22272
Antonin Ver;1904;parliament;Lafrancaise;Tarn-et-Garonne;82;Occitanie;44.127821;1.241235
Charles Piot ;1904;executive;Grenoble;Isère;38;Auvergne-Rhône-Alpes;45.182828;5.724369
Charles Suran;1904;senat;Blajan;Haute-Garonne;31;Occitanie;43.260128;0.652416
Daniel Daviaud;1904;parliament;Saint-Aigulin ;Charente-Maritime;17;Nouvelle-Aquitaine;45.1553;-0.0108
Edgar Tailhades;1904;senat;Riols;Hérault;34;Occitanie;43.5044;2.7936
Edmond Bricout;1904;parliament;Walincourt;Nord;59;Hauts-de-France;50.161537;3.246807
Edmond Desouches;1904;parliament;Bercheres-les-pierres;Eure-et-Loir;28;Centre-Val de Loire;48.380862;1.547871
Edouard Rieunaud;1904;parliament;Valderies;Tarn;81;Occitanie;44.018886;2.236038
Emmanuel Véry-Hermence;1904;parliament;Sainte-marie;Martinique;972;Martinique;14.762818;-61.038126
Etienne Wolff;1904;scholar;Auxerre;Yonne;89;Bourgogne-Franche-Comté;47.791247;3.579905
Fernand Dussert;1904;senat;Arleuf;Nièvre;58;Bourgogne-Franche-Comté;47.039618;4.00308
Georges Chedru;1904;parliament;Goderville;Seine-Maritime;76;Normandie;49.6456303;0.3661017
Guy Pascaud;1904;senat;Chasseneuil-sur-bonnieure;Charente;16;Nouvelle-Aquitaine;45.822963;0.447077
Henri Sibor;1904;senat;Garlin;Pyrénées-Atlantiques;64;Nouvelle-Aquitaine;43.55413;-0.27435
Jacques Henriet;1904;senat;Orchamps-vennes;Doubs;25;Bourgogne-Franche-Comté;47.125489;6.51853
Jean Auburtin;1904;senat;Paris 1;Paris;75;Île-de-France;48.863826751708984;2.3342583179473877
Jean Mézard;1904;senat;Vayrac;Lot;46;Occitanie;44.947909;1.699933
Jean Noury;1904;senat;Saint-Malo;Ille-et-Vilaine;35;Bretagne;48.6494444;2.026111111111111
Joseph de Pommery;1904;senat;Fontainebleau;Seine-et-Marne;77;Île-de-France;48.399577;2.712711
Joseph Raybaud;1904;senat;Levens ;Alpes-Maritimes;6;Provence-Alpes-Côte d'Azur;43.8583;7.2250
Léon Chambaretaud;1904;senat;Lyon;Rhône;69;Auvergne-Rhône-Alpes;45.733873;4.828499
Louis Bréchard;1904;parliament;Chamelet;Rhône;69;Auvergne-Rhône-Alpes;45.985135;4.500933
Lucien Grand;1904;senat;Saintes;Charente-Maritime;17;Nouvelle-Aquitaine;45.748804;-0.647217
Ludovic Tron;1904;senat;Molines-en-queyras;Hautes-Alpes;5;Provence-Alpes-Côte d'Azur;44.726073;6.862247
Marc Saintout;1904;parliament;Saucats;Gironde;33;Nouvelle-Aquitaine;44.652121;-0.616449
Marcel Bertrand;1904;senat;Berlaimont;Nord;59;Hauts-de-France;50.209272;3.790207
Marius, Léon Durbet;1904;parliament;Arbin;Savoie;73;Auvergne-Rhône-Alpes;45.510795;6.070553
Michel Dieras;1904;parliament;Mauzens-et-miremont;Dordogne;24;Nouvelle-Aquitaine;44.992216;0.920955
Michel Jamot;1904;parliament;Paris 15;Paris;75;Île-de-France;48.84374237060547;2.2927637100219727
Paul Bécue;1904;parliament;Sebourg;Nord;59;Hauts-de-France;50.348438;3.645455
Paul Mistral;1904;senat;Grenoble;Isère;38;Auvergne-Rhône-Alpes;45.182828;5.724369
Pierre Dalainzy;1904;parliament;Luneville;Meurthe-et-Moselle;54;Grand Est;48.584083;6.482979
Pierre Ferri;1904;parliament;Paris 10;Paris;75;Île-de-France;48.87582778930664;2.360285758972168
Pierre Guillain;1904;parliament;Armentieres;Nord;59;Hauts-de-France;50.692113;2.879124
Pierre Patria;1904;senat;Fontaine-chaalis;Oise;60;Hauts-de-France;49.169995;2.68627
Raymond, Antoine Schmittlein;1904;parliament;Roubaix;Nord;59;Hauts-de-France;50.688454;3.183662
René Labat;1904;scholar;Saint-loubes;Gironde;33;Nouvelle-Aquitaine;44.922032;-0.430094
René Plazanet;1904;parliament;Chamberet;Corrèze;19;Nouvelle-Aquitaine;45.604293;1.714982
Robert Thomazo;1904;parliament;Dax;Landes;40;Nouvelle-Aquitaine;43.700723;-1.06016
Roger Duchet;1904;senat;Lyon;Rhône;69;Auvergne-Rhône-Alpes;45.733873;4.828499
Roger Moreau;1904;senat;Montrésor ;Indre-et-Loire;37;Centre-Val de Loire;47.1558;1.2011
Roland Boscary-Monsservin;1904;senat;Rodez;Aveyron;12;Occitanie;44.359272;2.566732
Roland, Joseph-Marie Boscary-Monsservin;1904;parliament;Rodez;Aveyron;12;Occitanie;44.342995;2.568962
Tony Larue;1904;senat;Rouen;Seine-Maritime;76;Normandie;49.432204;1.090077
Yvonne Stephan;1904;parliament;Port-louis;Morbihan;56;Bretagne;47.908024;-2.753678
Raymonde Foreville;1904;scholar;Montpellier;Hérault;34;Occitanie;43.610476;3.87048
Étienne Wolff;1904;scholar;Auxerre;Yonne;89;Bourgogne-Franche-Comté;47.791247;3.579905
Abel Gauthier;1905;senat;Orbeil;Puy-de-Dôme;63;Auvergne-Rhône-Alpes;45.569637;3.271366
Adolphe Dutoit;1905;senat;Vendin-le-vieil;Pas-de-Calais;62;Hauts-de-France;50.467754;2.859528
Albert Lalle;1905;parliament;Villy-le-moutier;Côte-d'Or;21;Bourgogne-Franche-Comté;47.040705;4.990905
Albert, Jérémie, Joseph, Cornil Denvers;1905;parliament;Oost-cappel;Nord;59;Hauts-de-France;50.926792;2.586247
Amédée Brousset;1905;parliament;Angers;Maine-et-Loire;49;Pays de la Loire;47.477612;-0.547612
André Boutemy;1905;senat;Bécherel;Ille-et-Vilaine;35;Bretagne;48.2958;-1.9442
André Rey;1905;parliament;Fronton;Haute-Garonne;31;Occitanie;43.675859;1.424543
Arthur Lavy;1905;senat;Pringy;Seine-et-Marne;77;Île-de-France;48.523396;2.556399
Clément Balestra;1905;senat;Arles;Bouches-du-Rhône;13;Provence-Alpes-Côte d'Azur;43.596721;4.645086
Edouard Carlier;1905;parliament;Lillers;Pas-de-Calais;62;Hauts-de-France;50.55814;2.474728
Edouard, Jean, François Charret;1905;parliament;Tarare;Rhône;69;Auvergne-Rhône-Alpes;45.9007;4.429772
Emile Halbout;1905;parliament;La lande-patry;Orne;61;Normandie;48.754748;-0.595945
Emile, Michel Liquard;1905;parliament;Saint-germain-d'esteuil;Gironde;33;Nouvelle-Aquitaine;45.260383;-0.876355
Emile, Pierre Vivier;1905;parliament;Chateauneuf-en-thymerais;Eure-et-Loir;28;Centre-Val de Loire;48.58522;1.239791
Eugène Romaine;1905;senat;Archignat;Allier;3;Auvergne-Rhône-Alpes;46.364367;2.413471
Frédéric Champierre de Villeneuve;1905;parliament;Saint-Benoît;La Réunion;974;La Réunion;-21.08114;55.742032
Georges Becker;1905;parliament;Belfort;Territoire de Belfort;90;Bourgogne-Franche-Comté;47.637744;6.862855
Georges Sarazin;1905;parliament;Aniche;Nord;59;Hauts-de-France;50.331489;3.253349
Guy Petit;1905;senat;Biarritz;Pyrénées-Atlantiques;64;Nouvelle-Aquitaine;43.472166;-1.555076
Guy, Alcide Mollet;1905;parliament;Flers;Pas-de-Calais;62;Hauts-de-France;50.271329;2.772229
Henri Freville;1905;senat;Norrent-fontes;Pas-de-Calais;62;Hauts-de-France;50.591206;2.41473
Henri Fréville;1905;parliament;Norrent-fontes;Pas-de-Calais;62;Hauts-de-France;50.595687;2.452163
Henri Laoust;1905;scholar;Fresnes-sur-escaut;Nord;59;Hauts-de-France;50.433148;3.574831
Jean Allard de Grandmaison;1905;parliament;Nantes;Loire-Atlantique;44;Pays de la Loire;47.239367;-1.555335
Jean Bastide;1905;parliament;Anduze;Gard;30;Occitanie;44.055006;3.98408
Jean Geoffroy;1905;senat;Malaucene;Vaucluse;84;Provence-Alpes-Côte d'Azur;44.180979;5.155322
Jean Natali;1905;senat;Mazzola;Haute-Corse;2B;Corse;42.301974;9.309586
Jean René Guerrand;1905;executive;Rolleville;Seine-Maritime;76;Normandie;49.578969;0.214553
Jean-Marie Morisse;1905;parliament;Sotteville-les-rouen;Seine-Maritime;76;Normandie;49.401625;1.08527
Julien Cazelles;1905;parliament;Laguepie;Tarn-et-Garonne;82;Occitanie;44.150167;1.989513
Louis Briot;1905;parliament;Thury;Yonne;89;Bourgogne-Franche-Comté;47.581247;3.277475
Louis Pimont;1905;parliament;Laguenne-sur-Avalouze ;Corrèze;19;Nouvelle-Aquitaine;45.2422;1.7822
Marcel Cerneau;1905;parliament;Sainte-Marie;La Réunion;974;La Réunion;-20.918558;55.528729
Marcel Nuninger;1905;senat;Riedisheim;Haut-Rhin;68;Grand Est;47.741089;7.362723
Marcel Sammarcelli;1905;parliament;Loreto-di-casinca;Haute-Corse;2B;Corse;42.475845;9.430431
Maurice Bayrou;1905;senat;Lanta ;Haute-Garonne;31;Occitanie;43.5597;1.6553
Pascal Marchetti;1905;parliament;Lyon;Rhône;69;Auvergne-Rhône-Alpes;45.733873;4.828499
Paul Duraffour;1905;parliament;Anzy-le-duc;Saône-et-Loire;71;Bourgogne-Franche-Comté;46.318885;4.070495
Paul Mazurier;1905;parliament;Clermont-ferrand;Puy-de-Dôme;63;Auvergne-Rhône-Alpes;45.787176;3.060738
Pierre Garet;1905;senat;Montdidier;Somme;80;Hauts-de-France;49.646548;2.570061
Pierre Marzin;1905;senat;Lannion;Côtes-d'Armor;22;Bretagne;48.753699;-3.441902
Pierre Metayer;1905;senat;Arcueil;Val-de-Marne;94;Île-de-France;48.805178;2.333471
Pierre Métayer;1905;parliament;Arcueil;Val-de-Marne;94;Île-de-France;48.795717;2.32627
Raymond Aron;1905;scholar;Paris 6;Paris;75;Île-de-France;48.85261154174805;2.3332111835479736
Raymond Joyon;1905;parliament;Cerilly;Allier;3;Auvergne-Rhône-Alpes;46.625415;2.818044
Robert Bruyneel;1905;senat;Lille;Nord;59;Hauts-de-France;50.630951;3.045391
Robert Gravier;1905;senat;Haudonville;Meurthe-et-Moselle;54;Grand Est;48.499914;6.499712
Robert Soudant;1905;senat;Marvaux-vieux;Ardennes;8;Grand Est;49.28131;4.697111
Robert Szigeti;1905;parliament;Paris 10;Paris;75;Île-de-France;48.87582778930664;2.360285758972168
Roger Bellon;1905;executive;Suresnes;Hauts-de-Seine;92;Île-de-France;48.870985;2.218087
Roger Diet;1905;parliament;Saint-laurent-du-pont;Isère;38;Auvergne-Rhône-Alpes;45.398121;5.722095
Romain Buffet;1905;parliament;Bissy-sous-uxelles;Saône-et-Loire;71;Bourgogne-Franche-Comté;46.570467;4.72001
Victor Robini;1905;senat;Le muy;Var;83;Provence-Alpes-Côte d'Azur;43.462584;6.555645
Waldeck L'Huillier;1905;senat;Chauvigny;Vienne;86;Nouvelle-Aquitaine;46.516576;0.705964
Waldeck l'Huillier;1905;parliament;Chauvigny;Vienne;86;Nouvelle-Aquitaine;46.516576;0.705964
Waldeck, Emile Rochet;1905;parliament;Sainte-Croix-en-Bresse;Saône-et-Loire;71;Bourgogne-Franche-Comté;46.78724;4.856019
Savitri Devi;1905;scholar;Lyon;Rhône;69;Auvergne-Rhône-Alpes;45.758;4.835
Alfred Kieffer;1906;senat;Eichhoffen;Bas-Rhin;67;Grand Est;48.383731;7.443261
André Brugerolle;1906;parliament;Matha ;Charente-Maritime;17;Nouvelle-Aquitaine;45.8675;-0.3208
André Chérasse;1906;parliament;Le montet;Allier;3;Auvergne-Rhône-Alpes;46.440005;2.350775
Armand Josse;1906;executive;Paris 9;Paris;75;Île-de-France;48.872615814208984;2.340359926223755
Camille Bégué;1906;parliament;Pessoulens;Gers;32;Occitanie;43.85784;0.885918
Etienne Fajon;1906;parliament;Jonquieres;Hérault;34;Occitanie;43.674797;3.477838
Etienne Gagnaire;1906;parliament;Saint-etienne;Loire;42;Auvergne-Rhône-Alpes;45.430195;4.370045
Eugène Fourvel;1906;parliament;Vertaizon;Puy-de-Dôme;63;Auvergne-Rhône-Alpes;45.775548;3.100745
Eugène Ritzenthaler;1906;senat;Port du Ried;Haut-Rhin;68;Grand Est;48.085296;7.363986
Fernand Verdeille;1906;senat;Penne;Tarn;81;Occitanie;44.078935;1.733681
François Gautier;1906;executive;Sete;Hérault;34;Occitanie;43.40682;3.687298
Gabriel Escudier;1906;parliament;Tavernes;Var;83;Provence-Alpes-Côte d'Azur;43.601863;6.021048
Gabriel Macé;1906;parliament;Saint-Denis;La Réunion;974;La Réunion;-20.894557;55.491284
Georges Bustin;1906;parliament;Vieux-conde;Nord;59;Hauts-de-France;50.474001;3.567392
Georges Posener;1906;scholar;Paris 6;Paris;75;Île-de-France;48.85261154174805;2.3332111835479736
Gérard, Henri, Jean Deliaune;1906;parliament;Bordeaux;Gironde;33;Nouvelle-Aquitaine;44.850558;-0.627054
Gilbert Devaux;1906;executive;Neuilly-sur-Seine;Hauts-de-Seine;92;Île-de-France;48.886191;2.265869
Guy Fric;1906;parliament;Clermont-ferrand;Puy-de-Dôme;63;Auvergne-Rhône-Alpes;45.787176;3.060738
Henri Gorce-Franklin;1906;parliament;Lyon;Rhône;69;Auvergne-Rhône-Alpes;45.733873;4.828499
Jacqueline Thome-Patenôtre;1906;parliament;Paris 16;Paris;75;Île-de-France;48.86101150512695;2.2834136486053467
Jacques Boutard;1906;parliament;Paris 17;Paris;75;Île-de-France;48.88784408569336;2.3070974349975586
Jacques Weinman;1906;parliament;Besancon;Doubs;25;Bourgogne-Franche-Comté;46.924503;6.34284
Jean Doublet;1906;parliament;Montdidier;Somme;80;Hauts-de-France;49.646548;2.570061
Jean Filliol;1906;parliament;Argentat-sur-Dordogne ;Corrèze;19;Nouvelle-Aquitaine;45.0936;1.9389
Jean Leray;1906;scholar;Nantes;Loire-Atlantique;44;Pays de la Loire;47.239367;-1.555335
Jean-Marie Grenier;1906;parliament;Verrieres-de-joux;Doubs;25;Bourgogne-Franche-Comté;46.897301;6.45144
Jean-Pierre Profichet;1906;parliament;Le Havre;Seine-Maritime;76;Normandie;49.507345;0.129995
Jean-Robert Debray;1906;parliament;Calais;Pas-de-Calais;62;Hauts-de-France;50.942491;1.8609
Jean, Adolphe, Marie Crouan;1906;parliament;Quemeneven;Finistère;29;Bretagne;48.118915;-4.140219
Jean, Constant Legendre;1906;parliament;Paris 11;Paris;75;Île-de-France;48.86030960083008;2.3786137104034424
Joseph Frys;1906;parliament;Tourcoing;Nord;59;Hauts-de-France;50.720797;3.157799
Joseph Yvon;1906;senat;Groix;Morbihan;56;Bretagne;47.637204;-3.462115
Jules Pinsard;1906;senat;Creches-sur-saone et;Saône-et-Loire;71;Bourgogne-Franche-Comté;46.241575;4.786648
Léon Motais de Narbonne;1906;senat;Capesterre-Belle-Eau;Guadeloupe;971;Guadeloupe;16.0422;-61.5653
Louis Hambis;1906;scholar;Liguge;Vienne;86;Nouvelle-Aquitaine;46.521779;0.285561
Louis-Jean Delmas;1906;parliament;Montaigu-de-quercy;Tarn-et-Garonne;82;Occitanie;44.345573;1.031583
Madeleine Aymé de la Chevrelière;1906;parliament;Paris 16;Paris;75;Île-de-France;48.86101150512695;2.2834136486053467
Marcel Clermontel;1906;parliament;Clermont-ferrand;Puy-de-Dôme;63;Auvergne-Rhône-Alpes;45.787176;3.060738
Marcel Lemaire;1906;senat;Saint-thierry;Marne;51;Grand Est;49.301421;3.961618
Maurice Le Lannou;1906;scholar;Plouha;Côtes-d'Armor;22;Bretagne;48.687573;-2.931222
Michel Carrier;1906;parliament;Oyonnax;Ain;1;Auvergne-Rhône-Alpes;46.264295;5.638998
Paul Ribeyre;1906;senat;Aubagne;Bouches-du-Rhône;13;Provence-Alpes-Côte d'Azur;43.301892;5.563888
Paul Wach;1906;senat;Schiltigheim;Bas-Rhin;67;Grand Est;48.611161;7.739943
Pierre Billotte;1906;minister;Paris 16;Paris;75;Île-de-France;48.86101150512695;2.2834136486053467
Pierre, Armand, Gaston Billotte;1906;parliament;Paris 16;Paris;75;Île-de-France;48.86101150512695;2.2834136486053467
Raymond Derancy;1906;parliament;Hersin-coupigny;Pas-de-Calais;62;Hauts-de-France;50.440309;2.654913
Raymond Gernez;1906;parliament;Avesnes-les-aubert;Nord;59;Hauts-de-France;50.196335;3.382733
Raymond Triboulet;1906;minister;Paris 1;Paris;75;Île-de-France;48.863826751708984;2.3342583179473877
René Blas;1906;parliament;Fourmies;Nord;59;Hauts-de-France;50.015147;4.061667
René Huyghe;1906;scholar;Arras;Pas-de-Calais;62;Hauts-de-France;50.287896;2.768267
René Schwartz;1906;senat;Nilvange;Moselle;57;Grand Est;49.34288;6.048597
Robert Burret;1906;senat;Camales;Hautes-Pyrénées;65;Occitanie;43.360317;0.071551
Yves Allainmat;1906;parliament;Paimpol;Côtes-d'Armor;22;Bretagne;48.764987;-3.024532
Marie-Joseph Nicolas;1906;scholar;Fontenay-le-comte;Vendée;85;Pays de la Loire;46.459821;-0.794159
René David;1906;scholar;Paris 6;Paris;75;Île-de-France;48.849268;2.330883
Bernard Duperier;1907;parliament;Paris 8;Paris;75;Île-de-France;48.87311553955078;2.310023307800293
Camille Dussarthou;1907;parliament;Bayonne;Pyrénées-Atlantiques;64;Nouvelle-Aquitaine;43.488989;-1.475553
Edouard Bonnefous;1907;senat;Paris 16;Paris;75;Île-de-France;48.86101150512695;2.2834136486053467
Ernest Barbier;1907;parliament;Hyeres;Var;83;Provence-Alpes-Côte d'Azur;43.116731;6.20255
Eugène, Pierre Petit dit Claudius-Petit;1907;parliament;Angers;Maine-et-Loire;49;Pays de la Loire;47.477612;-0.547612
Gabriel Lapeyrusse;1907;parliament;Nérac ;Lot-et-Garonne;47;Nouvelle-Aquitaine;44.1358;0.3405
Henri Caillemer;1907;parliament;Grenoble;Isère;38;Auvergne-Rhône-Alpes;45.192514;5.716179
Henri Collomb;1907;parliament;Pelussin;Loire;42;Auvergne-Rhône-Alpes;45.42376;4.662505
Henri Dorey;1907;parliament;Pierre-de-Bresse;Saône-et-Loire;71;Bourgogne-Franche-Comté;46.854998;5.209819
Henri Duffaut;1907;senat;Beziers;Hérault;34;Occitanie;43.343264;3.233465
Henri Duflot;1907;parliament;Lens;Pas-de-Calais;62;Hauts-de-France;50.419122;3.027127
Jacques Millot;1907;parliament;Sery-les-mezieres;Aisne;2;Hauts-de-France;49.773425;3.418599
Jacques Rosselli;1907;senat;Paris 16;Paris;75;Île-de-France;48.86101150512695;2.2834136486053467
Jean Drouot-l'Hermine;1907;parliament;Luxeuil-les-bains;Haute-Saône;70;Bourgogne-Franche-Comté;47.817813;6.374503
Jean Durlot;1907;parliament;Troyes;Aube;10;Grand Est;48.292817;4.075149
Jean Hyppolite;1907;scholar;Jonzac;Charente-Maritime;17;Nouvelle-Aquitaine;45.444416;-0.427413
Jean Le Duc;1907;parliament;Morlaix;Finistère;29;Bretagne;48.4038;-4.520559
Jean Negre;1907;senat;Armentieres;Nord;59;Hauts-de-France;50.692113;2.879124
Jean Nègre;1907;parliament;Armentieres;Nord;59;Hauts-de-France;50.692113;2.879124
Jean Sagette;1907;parliament;Cussac;Cantal;15;Auvergne-Rhône-Alpes;45.180864;2.258628
Jean Sainteny;1907;minister;Le vesinet;Yvelines;78;Île-de-France;48.894697;2.131228
Jean Zuccarelli;1907;parliament;Bastia;Haute-Corse;2B;Corse;42.687608;9.435179
Jeannette Prin;1907;parliament;Auchy-les-mines;Pas-de-Calais;62;Hauts-de-France;50.50388;2.77519
Joseph Philippe;1907;parliament;Ville-la-grand;Haute-Savoie;74;Auvergne-Rhône-Alpes;46.205587;6.257073
Kilian Hennessy;1907;executive;Paris 8;Paris;75;Île-de-France;48.873998;2.31129
Léon Teisseire;1907;parliament;Nice;Alpes-Maritimes;6;Provence-Alpes-Côte d'Azur;43.674468;7.196837
Louis Le Montagner;1907;senat;Guidel;Morbihan;56;Bretagne;47.79091;-3.488029
Lucien Bourgeois;1907;parliament;Toulon;Var;83;Provence-Alpes-Côte d'Azur;43.136379;5.933443
Lucien Meunier;1907;parliament;Boulogne-sur-mer;Pas-de-Calais;62;Hauts-de-France;50.729737;1.614205
Lucien Paye;1907;minister;Vernoil-le-Fourrier;Maine-et-Loire;49;Pays de la Loire;47.394273;0.102518
Maurice Coutrot;1907;senat;Paris;Paris;75;Île-de-France;48.854446;2.33678
Maurice Couve De Murville;1907;senat;Reims;Marne;51;Grand Est;49.250948;4.055595
Maurice Couve de Murville;1907;minister;Reims;Marne;51;Grand Est;49.250948;4.055595
Max Moras;1907;parliament;Dax;Landes;40;Nouvelle-Aquitaine;43.700723;-1.06016
Maxime Javelly;1907;senat;Riez;Alpes-de-Haute-Provence;4;Provence-Alpes-Côte d'Azur;43.818198;6.083039
Michel Jacquet;1907;parliament;Saint-etienne-le-molard;Loire;42;Auvergne-Rhône-Alpes;45.738287;4.095778
Michel Yver;1907;senat;Fresville;Manche;50;Normandie;49.4408;-1.355188
Paul Boudon;1907;parliament;Brioude;Haute-Loire;43;Auvergne-Rhône-Alpes;45.362534;3.313342
Paul Cherbonneau;1907;parliament;Les Hauts-d’Anjou;Maine-et-Loire;49;Pays de la Loire;47.736415;-0.606579
Paul Leloir;1907;parliament;Cambrai;Nord;59;Hauts-de-France;50.172628;3.240712
Paul Pillet;1907;senat;Roanne;Loire;42;Auvergne-Rhône-Alpes;46.043412;4.072015
Paul, François Pillet;1907;parliament;Roanne;Loire;42;Auvergne-Rhône-Alpes;46.029846;4.076013
Pierre Doize;1907;parliament;Marseille;Bouches-du-Rhône;13;Provence-Alpes-Côte d'Azur;43.279396;5.381923
Pierre Pflimlin;1907;minister;Roubaix;Nord;59;Hauts-de-France;50.688454;3.183662
Pierre Ruais;1907;parliament;Nancy;Meurthe-et-Moselle;54;Grand Est;48.705042;6.182721
Pierre, Eugène, Jean Pflimlin;1907;parliament;Roubaix;Nord;59;Hauts-de-France;50.688454;3.183662
Pierre, Isaac, Isidore Mendès France;1907;parliament;Paris;Paris;75;Île-de-France;48.854446;2.33678
René Blondelle;1907;senat;Pouilly-sur-serre;Aisne;2;Hauts-de-France;49.680879;3.591543
René Mocquiaux;1907;parliament;Mourmelon-le-grand;Marne;51;Grand Est;49.136487;4.359668
René Rollin;1907;senat;Saint-dizier;Haute-Marne;52;Grand Est;48.638926;4.957021
René Schmitt;1907;parliament;Cormeilles;Eure;27;Normandie;49.249154;0.385511
Robert Figeat;1907;parliament;Vielmanay;Nièvre;58;Bourgogne-Franche-Comté;47.268835;3.113656
Robert Morlevat;1907;parliament;Saint-maur-des-fosses;Val-de-Marne;94;Île-de-France;48.799943;2.491801
Roger Duveau;1907;parliament;Haute-Amance;Haute-Marne;52;Grand Est;47.8486;5.570157
Aimée Batier;1908;parliament;Versailles;Yvelines;78;Île-de-France;48.803019;2.131319
Amédée Bouquerel;1908;senat;Raimbeaucourt;Nord;59;Hauts-de-France;50.438764;3.10078
André Picquot;1908;parliament;Lucey;Meurthe-et-Moselle;54;Grand Est;48.72113037109375;5.837355136871338
André Salardaine;1908;parliament;Charron;Charente-Maritime;17;Nouvelle-Aquitaine;46.295278;-1.105
Baudouin de Hauteclocque;1908;senat;Royon ;Pas-de-Calais;62;Hauts-de-France;50.4578;2.0044
Bernard Chochoy;1908;senat;Nielles-les-blequin;Pas-de-Calais;62;Hauts-de-France;50.675821;2.043387
Christian de Waldner;1908;executive;Paris 8;Paris;75;Île-de-France;48.873998;2.31129
Claudius Delorme;1908;senat;Mornant;Rhône;69;Auvergne-Rhône-Alpes;45.613266;4.675025
Constant Lepourry;1908;parliament;Périers;Manche;50;Normandie;48.751774;-1.462308
Daniel Benoist;1908;senat;Paris 15;Paris;75;Île-de-France;48.84374237060547;2.2927637100219727
Edgar Faure;1908;minister;Beziers;Hérault;34;Occitanie;43.343264;3.233465
Edmond Massaud;1908;parliament;Lanzac;Lot;46;Occitanie;44.8744335;1.4828127
Emile, Henri Tricon;1908;parliament;Paris 10;Paris;75;Île-de-France;48.87582778930664;2.360285758972168
Emmanuel Lartigue;1908;senat;Bayonne;Pyrénées-Atlantiques;64;Nouvelle-Aquitaine;43.488544;-1.466564
Fernand Poignant;1908;senat;Lavardin;Loire-Atlantique;72;Pays de la Loire;47.658965;-1.63237
Fernand Sauzedde;1908;parliament;Saint-remy-sur-durolle;Puy-de-Dôme;63;Auvergne-Rhône-Alpes;45.886563;3.6055
Fernand Secheer;1908;parliament;Biaudos;Landes;40;Nouvelle-Aquitaine;43.547024;-1.314268
Francis, Emile, Daniel Leenhardt;1908;parliament;Marseille;Bouches-du-Rhône;13;Provence-Alpes-Côte d'Azur;43.279396;5.381923
Georges Constant;1908;senat;Payrac;Lot;46;Occitanie;44.794844;1.471406
Gérard Yvon;1908;parliament;Courmemin;Loir-et-Cher;41;Centre-Val de Loire;47.471498;1.628391
Henri Deschamps;1908;parliament;Ruelle-sur-Touvre ;Charente;16;Nouvelle-Aquitaine;45.6942;0.2222
Henri Grenet;1908;parliament;Begles;Gironde;33;Nouvelle-Aquitaine;44.802063;-0.551312
Henri Henneguelle;1908;senat;Fruges ;Pas-de-Calais;62;Hauts-de-France;50.5147;2.1319
Henri Karcher;1908;parliament;Saint-Dié-des-Vosges;Vosges;88;Grand Est;48.294697;6.940983
Henri-François Buot;1908;parliament;Souleuvre en Bocage;Calvados;14;Normandie;49.009909;-0.801084
Jacques Bordeneuve;1908;senat;Sainte-livrade-sur-lot;Lot-et-Garonne;47;Nouvelle-Aquitaine;44.407782;0.60059
Jacques Coudert;1908;senat;Le raincy;Seine-Saint-Denis;93;Île-de-France;48.895953;2.519715
Jacques Delalande;1908;senat;Le mans;Sarthe;72;Pays de la Loire;47.999338;0.190969
Jacques Maury;1908;senat;Le mans;Sarthe;72;Pays de la Loire;47.999338;0.190969
Jacques, Guillaume Bordeneuve;1908;parliament;Sainte-livrade-sur-lot;Lot-et-Garonne;47;Nouvelle-Aquitaine;44.397874;0.590574
Jean Lafon;1908;parliament;Barbezieux-Saint-Hilaire;Charente;16;Nouvelle-Aquitaine;45.27312;0.033558
Léo Hamon;1908;parliament;Paris 13;Paris;75;Île-de-France;48.836666107177734;2.403441905975342
Léon Feix;1908;parliament;Forges;Corrèze;19;Nouvelle-Aquitaine;45.37341;1.873961
Louis Boisson;1908;parliament;Saint-laurent-la-vernede;Gard;30;Occitanie;44.106606;4.458558
Louis Namy;1908;senat;Bordeaux;Gironde;33;Nouvelle-Aquitaine;44.851897;-0.587877
Louis Terrenoire;1908;minister;Lyon;Rhône;69;Auvergne-Rhône-Alpes;45.733873;4.828499
Louis Vallon;1908;parliament;Crest;Drôme;26;Auvergne-Rhône-Alpes;44.730453;5.020155
Maurice Charpentier;1908;senat;Parthenay;Deux-Sèvres;79;Nouvelle-Aquitaine;46.644061;-0.240067
Maurice Merleau-Ponty;1908;scholar;Rochefort;Charente-Maritime;17;Nouvelle-Aquitaine;45.941002;-0.977705
Modeste Legouez;1908;senat;Epreville-pres-le-neubourg;Eure;27;Normandie;49.133253;0.878806
Olivier Harty de Pierrebourg;1908;parliament;Vauxbuin;Aisne;2;Hauts-de-France;49.361632;3.300789
Paul Mainguy;1908;parliament;Bourg-la-reine;Hauts-de-Seine;92;Île-de-France;48.779888;2.316407
Paul, Victor Boulet;1908;parliament;Jouet-sur-l'aubois;Cher;18;Centre-Val de Loire;47.049052;3.001212
Philippe Giovannini;1908;parliament;Sorbo-ocagnano;Haute-Corse;2B;Corse;42.481581;9.485544
Pierre Bouneau;1908;senat;Barsac;Gironde;33;Nouvelle-Aquitaine;44.681516;-0.356511
Pierre Gabelle;1908;parliament;Cour-cheverny;Loir-et-Cher;41;Centre-Val de Loire;47.510167;1.457812
Pierre Grasset-Morel;1908;parliament;Montpellier;Hérault;34;Occitanie;43.610476;3.87048
Raoul Vadepied;1908;senat;Évron;Mayenne;53;Pays de la Loire;48.133453;-0.431899
Raymond Boin;1908;senat;Bergerac;Dordogne;24;Nouvelle-Aquitaine;44.85304;0.482291
Raymond Dronne;1908;parliament;Mayet;Sarthe;72;Pays de la Loire;47.720472;0.221772
René Regaudie;1908;parliament;La croisille-sur-briance;Haute-Vienne;87;Nouvelle-Aquitaine;45.689456;1.541121
Renée Dervaux;1908;senat;Meung-sur-loire;Loiret;45;Centre-Val de Loire;47.83511;1.699355
Robert Lavergne;1908;parliament;Mouy;Oise;60;Hauts-de-France;49.314949;2.31442
Robert Lecourt;1908;minister;Pavilly ;Seine-Maritime;76;Normandie;49.5683;0.9536
Robert Liot;1908;senat;Royan;Charente-Maritime;17;Nouvelle-Aquitaine;45.628467;-1.028109
Roger Deblock;1908;senat;Ledringhem;Nord;59;Hauts-de-France;50.86021;2.445274
Suzanne Ploux;1908;parliament;Rochefort;Charente-Maritime;17;Nouvelle-Aquitaine;45.941002;-0.977705
Henri Chambre;1908;scholar;Chambery;Savoie;73;Auvergne-Rhône-Alpes;45.577896;5.898555
Jean Gaudemet;1908;scholar;Dijon;Côte-d'Or;21;Bourgogne-Franche-Comté;47.331848;5.033601
Adrien Laplace;1909;senat;Montauban;Tarn-et-Garonne;82;Occitanie;44.012883;1.323306
Alain Horeau;1909;scholar;Nantes;Loire-Atlantique;44;Pays de la Loire;47.239367;-1.555335
Alain Poher;1909;president;Ablon-sur-seine;Val-de-Marne;94;Île-de-France;48.7247;2.42285
Albert Briand;1909;parliament;Saint-Pierre;La Réunion;974;La Réunion;-21.319168;55.486344
Albert Chavanac;1909;senat;Saumur;Maine-et-Loire;49;Pays de la Loire;47.256177;-0.093421
Albert Trébosc;1909;parliament;Boussac;Aveyron;12;Occitanie;44.297781;2.377134
André Jarrot;1909;minister;Lux;Saône-et-Loire;71;Bourgogne-Franche-Comté;46.752853;4.853553
Antoine Courriere;1909;senat;Cuxac-cabardes;Aude;11;Occitanie;43.377853;2.270084
Armand Kientzi;1909;senat;Strasbourg;Bas-Rhin;67;Grand Est;48.579831;7.761454
Bernard Chenot;1909;minister;Paris 6;Paris;75;Île-de-France;48.85261154174805;2.3332111835479736
Bernard Cornut-Gentille;1909;minister;Brest;Finistère;29;Bretagne;48.406435;-4.497736
Charles Colonna d'Anfriani;1909;parliament;Calvi;Haute-Corse;2B;Corse;42.56866;8.756042
Charles, Francisque Germain;1909;parliament;Villefranche-sur-saone;Rhône;69;Auvergne-Rhône-Alpes;45.985089;4.724382
Christian Masson;1909;senat;Grandpré;Ardennes;8;Grand Est;49.3413715;4.8682209
Emile Didier;1909;senat;Embrun;Hautes-Alpes;5;Provence-Alpes-Côte d'Azur;44.568046;6.484718
Eugène, Serge Authier;1909;parliament;Rougemont;Doubs;25;Bourgogne-Franche-Comté;47.479775;6.354125
François, Charles, Joseph Valentin dit François-Valentin;1909;parliament;Nancy;Meurthe-et-Moselle;54;Grand Est;48.705042;6.182721
Frédéric Gabriel-Sabatier;1909;parliament;Caen;Calvados;14;Normandie;49.189126;-0.337074
Georges Guille;1909;senat;Badens;Aude;11;Occitanie;43.222023;2.503684
Georges Lamousse;1909;senat;Droux;Haute-Vienne;87;Nouvelle-Aquitaine;46.159543;1.150761
Guy Desson;1909;parliament;Chelles;Seine-et-Marne;77;Île-de-France;48.88944;2.577095
Henri Ginoux;1909;parliament;Paris 14;Paris;75;Île-de-France;48.83161926269531;2.3244473934173584
Henri Lacagne;1909;parliament;Saint-symphorien-de-marmagne;Saône-et-Loire;71;Bourgogne-Franche-Comté;46.836054;4.30297
Henri Yrissou;1909;parliament;Nimes;Gard;30;Occitanie;43.814652;4.356289
Henri, Jean-Baptiste Fiévez;1909;parliament;Lourches;Nord;59;Hauts-de-France;50.311028;3.354621
Jacques Grondeau;1909;parliament;Bordeaux;Gironde;33;Nouvelle-Aquitaine;44.864615;-0.551361
Jean Bichat;1909;parliament;Luneville;Meurthe-et-Moselle;54;Grand Est;48.584083;6.482979
Jean Capelle;1909;parliament;Cales;Lot;46;Occitanie;44.763136;1.830158
Jean Clerfeuille;1909;executive;Auxerre;Yonne;89;Bourgogne-Franche-Comté;47.791247;3.579905
Jean Errecart;1909;senat;Oregue;Pyrénées-Atlantiques;64;Nouvelle-Aquitaine;43.414202;-1.152211
Jean Grimaud;1909;parliament;Redon;Ille-et-Vilaine;35;Bretagne;47.672829;-2.075557
Jean Lacaze;1909;senat;Bagneres-de-luchon;Haute-Garonne;31;Occitanie;42.791807;0.592146
Jean Orabona;1909;parliament;Novella;Haute-Corse;2B;Corse;42.578621;8.998197
Jean Sauvage;1909;senat;Angers;Maine-et-Loire;49;Pays de la Loire;47.467471;-0.561615
Jean Vinatier;1909;parliament;Seilhac;Corrèze;19;Nouvelle-Aquitaine;45.365919;1.720178
Joseph Charvet;1909;parliament;Lyon;Rhône;69;Auvergne-Rhône-Alpes;45.733873;4.828499
Joseph Legrand;1909;parliament;Carvin;Pas-de-Calais;62;Hauts-de-France;50.493587;2.958312
Joseph Peyret-Forcade;1909;parliament;Saint-leu;La Réunion;974;La Réunion;-21.216791;55.304617
Léonce Clérambeaux;1909;parliament;Villers-ecalles;Seine-Maritime;76;Normandie;49.537131;0.922284
Lucien de Montigny;1909;senat;Mayenne;Mayenne;53;Pays de la Loire;48.303387;-0.617261
Lucien Junillon;1909;senat;Etoile-sur-rhone;Drôme;26;Auvergne-Rhône-Alpes;44.833924;4.885112
Maurice, Charles Brugnon;1909;parliament;Saint-michel;Aisne;2;Hauts-de-France;49.92459;4.135018
Max Lejeune;1909;senat;Flesselles;Somme;80;Hauts-de-France;49.998972;2.260089
Max, Marius, Achille Lejeune;1909;parliament;Flesselles;Somme;80;Hauts-de-France;49.998972;2.260089
Odette Launay;1909;parliament;Neuilly-sur-Seine;Hauts-de-Seine;92;Île-de-France;48.886191;2.265869
Paul Driant;1909;senat;Gravelotte;Moselle;57;Grand Est;49.110187;6.026302
Paul Picard;1909;parliament;Saint-nicolas-de-macherin;Isère;38;Auvergne-Rhône-Alpes;45.406272;5.61141
Paul Tondut;1909;parliament;Lasalle;Gard;30;Occitanie;44.044664;3.847586
Philippe de Raincourt;1909;senat;Saint-valerien;Yonne;89;Bourgogne-Franche-Comté;48.178937;3.092824
Philippe Malet;1909;executive;Montpellier;Hérault;34;Occitanie;43.610476;3.87048
Pierre de Montesquiou;1909;parliament;Paris 8;Paris;75;Île-de-France;48.87311553955078;2.310023307800293
Pierre Gonard;1909;senat;Bert ;Allier;3;Auvergne-Rhône-Alpes;46.4667;3.7000
Pierre Guillaumat;1909;minister;La Flèche ;Sarthe;72;Pays de la Loire;47.7000;-0.0750
Pierre Lepage;1909;parliament;Orbigny;Indre-et-Loire;37;Centre-Val de Loire;47.209073;1.263256
Pierre Mariotte;1909;parliament;Maiche;Doubs;25;Bourgogne-Franche-Comté;47.085283;6.638346
Pierre, Auguste Montredon;1909;parliament;Roquefort-sur-soulzon;Aveyron;12;Occitanie;43.975656;2.988071
Pierre, Louis, Ernest, Armand Abelin;1909;parliament;Poitiers;Vienne;86;Nouvelle-Aquitaine;46.586578;0.35668
Pierre, Marie, Henri Grandcolas;1909;parliament;Gripport;Meurthe-et-Moselle;54;Grand Est;48.412671;6.253403
Raoul Jarry;1909;parliament;Roumagne;Lot-et-Garonne;47;Nouvelle-Aquitaine;44.628624;0.344709
Raymond Offroy;1909;parliament;Paris 8;Paris;75;Île-de-France;48.87311553955078;2.310023307800293
René Charpentier;1909;parliament;Paris;Paris;75;Île-de-France;48.854446;2.33678
René Jager;1909;senat;Richeling;Moselle;57;Grand Est;49.027035;6.961862
Ricard Societe-Paul;1909;executive;Marseille;Bouches-du-Rhône;13;Provence-Alpes-Côte d'Azur;43.282;5.405
Robert Barrière;1909;parliament;Sauveterre-de-guyenne;Gironde;33;Nouvelle-Aquitaine;44.694921;-0.08149
Robert Bisson;1909;parliament;Paris 11;Paris;75;Île-de-France;48.86030960083008;2.3786137104034424
Robert Levol;1909;parliament;Dormans;Marne;51;Grand Est;49.07008;3.64217
Roger Prat;1909;parliament;Bannalec;Finistère;29;Bretagne;47.951288;-3.700977
Tanguy Prigent Dit Tanguy-Prigent François;1909;parliament;Saint-jean-du-doigt;Finistère;29;Bretagne;48.671685;-3.758154
William Jacson;1909;parliament;Nancy;Meurthe-et-Moselle;54;Grand Est;48.705042;6.182721
Yves Hamon;1909;senat;Lennon;Finistère;29;Bretagne;48.207965;-3.90343
Albert Liogier;1910;parliament;Yssingeaux;Haute-Loire;43;Auvergne-Rhône-Alpes;45.197646;4.038777
Albert, Charles, Louis Bignon;1910;parliament;Groix;Morbihan;56;Bretagne;47.640685;-3.478362
Alfred Clerget;1910;parliament;Ronchamp;Haute-Saône;70;Bourgogne-Franche-Comté;47.570576;6.637616
André Colin;1910;senat;Brest;Finistère;29;Bretagne;48.406435;-4.497736
André Decelle;1910;executive;Blénod-lès-Pont-à-Mousson;Meurthe-et-Moselle;54;Grand Est;49.204714;5.930193
André Lebon;1910;parliament;Nouzonville;Ardennes;8;Grand Est;49.784882;4.720113
André Pelabon;1910;executive;Vieux-conde;Nord;59;Hauts-de-France;50.474001;3.567392
Antoine Gayraud;1910;parliament;Alzonne;Aude;11;Occitanie;43.259255;2.173393
Arsène, Louis Boulay;1910;parliament;Le crest;Puy-de-Dôme;63;Auvergne-Rhône-Alpes;45.698134;3.116135
Augustin Beauverger;1910;parliament;Chatelaudren-Plouagat;Côtes-d'Armor;22;Bretagne;48.540676;-2.972981
Bernard Lepeu;1910;parliament;Paris 8;Paris;75;Île-de-France;48.87311553955078;2.310023307800293
Bertrand Flornoy;1910;parliament;Paris 17;Paris;75;Île-de-France;48.88784408569336;2.3070974349975586
Emile Durand;1910;parliament;Tonneins;Lot-et-Garonne;47;Nouvelle-Aquitaine;44.397928;0.339231
Eugène Motte;1910;senat;Roubaix;Nord;59;Hauts-de-France;50.688454;3.183662
France Lechenault;1910;senat;Bouzeron;Saône-et-Loire;71;Bourgogne-Franche-Comté;46.890129;4.726691
Francis Vals;1910;parliament;Leucate;Aude;11;Occitanie;42.902728;3.027313
Francisque Collomb;1910;senat;Saint-rambert-en-bugey;Ain;1;Auvergne-Rhône-Alpes;45.949839;5.44078
François Gabas;1910;parliament;Urdos;Pyrénées-Atlantiques;64;Nouvelle-Aquitaine;42.872256;-0.555296
Gaston Deferre;1910;minister;Marsillargues;Hérault;34;Occitanie;43.607696;4.165214
Gaston Defferre;1910;senat;Marsillargues;Hérault;34;Occitanie;43.607696;4.165214
Henri Duvillard;1910;minister;Luxeuil-les-bains;Haute-Saône;70;Bourgogne-Franche-Comté;47.817813;6.374503
Henri, Albert, André Duvillard;1910;parliament;Luxeuil-les-bains;Haute-Saône;70;Bourgogne-Franche-Comté;47.817813;6.374503
Hubert Balança;1910;parliament;Boulogne-billancourt;Hauts-de-Seine;92;Île-de-France;48.881256;2.255525
Hubert Durand;1910;senat;La Caillère-Saint-Hilaire ;Vendée;85;Pays de la Loire;46.6175;-0.9214
Irma Rapuzzi;1910;senat;Cadolive;Bouches-du-Rhône;13;Provence-Alpes-Côte d'Azur;43.39901;5.544615
Isidore Renouard;1910;parliament;Langon;Ille-et-Vilaine;35;Bretagne;47.712846;-1.850256
Jacques Chabrat;1910;parliament;Bordeaux;Gironde;33;Nouvelle-Aquitaine;44.864615;-0.551361
Jacques Monod;1910;scholar;Paris 17;Paris;75;Île-de-France;48.88784408569336;2.3070974349975586
Jean Degraeve;1910;parliament;Chalons-sur-marne;Marne;51;Grand Est;48.898266;4.339489
Jean Deguise;1910;senat;Douchy;Aisne;2;Hauts-de-France;49.795896;3.135861
Jean Desmarets;1910;senat;Lille;Nord;59;Hauts-de-France;50.636883;3.090648
Jean Durroux;1910;parliament;Betchat;Ariège;9;Occitanie;43.08142;1.037053
Jean Lolive;1910;parliament;Brignais;Rhône;69;Auvergne-Rhône-Alpes;45.674704;4.754841
Jean Pascal;1910;parliament;Lamballe-Armor;Côtes-d'Armor;22;Bretagne;48.46981;-2.514381
Jean-Marcel Jeanneney;1910;minister;Paris 7;Paris;75;Île-de-France;48.857215881347656;2.3098840713500977
Jehan Faulquier;1910;parliament;Cervon;Nièvre;58;Bourgogne-Franche-Comté;47.249333;3.755301
Joseph, Marie, Gabriel Perrin;1910;parliament;Remiremont;Vosges;88;Grand Est;48.013284;6.590662
Léon Delemontex;1910;parliament;Ugine;Savoie;73;Auvergne-Rhône-Alpes;45.751551;6.414213
Louis Le Sénéchal;1910;parliament;Berck;Pas-de-Calais;62;Hauts-de-France;50.411853;2.876748
Louis Van Haecke;1910;parliament;La ferte-mace;Orne;61;Normandie;48.579385;-0.361903
Marcel Vauthier;1910;parliament;Saint-denis;La Réunion;974;La Réunion;-20.894557;55.491284
Maurice Papon;1910;minister;Gretz-armainvilliers;Seine-et-Marne;77;Île-de-France;48.738318;2.728488
Michel Hoguet;1910;parliament;Amiens;Somme;80;Hauts-de-France;49.903845;2.286048
Odette Pagani;1910;senat;Paris 12;Paris;75;Île-de-France;48.836666107177734;2.403441905975342
Paul Balmigère;1910;parliament;Camplong-d'aude;Aude;11;Occitanie;43.128453;2.649666
Paul Guillard;1910;senat;Nantes;Loire-Atlantique;44;Pays de la Loire;47.239367;-1.555335
Pierre Arraut;1910;parliament;Paris 15;Paris;75;Île-de-France;48.84374237060547;2.2927637100219727
Pierre Augier;1910;parliament;Manosque;Alpes-de-Haute-Provence;4;Provence-Alpes-Côte d'Azur;43.834351;5.775381
Pierre Caurier;1910;parliament;Sezanne;Marne;51;Grand Est;48.718482;3.721712
Pierre Comte-Offenbach;1910;parliament;Paris 9;Paris;75;Île-de-France;48.872615814208984;2.340359926223755
Pierre Herman;1910;parliament;Roubaix;Nord;59;Hauts-de-France;50.688454;3.183662
Pierre Labonde;1910;senat;Lyon;Rhône;69;Auvergne-Rhône-Alpes;45.733873;4.828499
Pierre Marcilhacy;1910;senat;Paris 8;Paris;75;Île-de-France;48.87311553955078;2.310023307800293
Pierre Picard;1910;parliament;Paris 17;Paris;75;Île-de-France;48.88784408569336;2.3070974349975586
Pierre, Laurent Pérus;1910;parliament;Argeles-gazost;Hautes-Pyrénées;65;Occitanie;43.007117;-0.098589
René Sanson;1910;parliament;Paris 8;Paris;75;Île-de-France;48.87311553955078;2.310023307800293
René Walter;1910;parliament;Troyes;Aube;10;Grand Est;48.292817;4.075149
René, Sylvain, Edouard Billères;1910;parliament;Ger;Pyrénées-Atlantiques;64;Nouvelle-Aquitaine;43.251147;-0.061441
Robert Buron;1910;minister;Paris 6;Paris;75;Île-de-France;48.85261154174805;2.3332111835479736
Robert Garraud;1910;parliament;Eymoutiers;Haute-Vienne;87;Nouvelle-Aquitaine;45.745842;1.702357
Robert Grèverie;1910;parliament;Tourville-les-ifs;Seine-Maritime;76;Normandie;49.714864;0.403743
Robert Laurens;1910;senat;Lacroix-barrez;Aveyron;12;Occitanie;44.775528;2.646206
Robert Valbrun;1910;parliament;Lille;Nord;59;Hauts-de-France;50.646872;3.054694
Robert, Albert, Gaston Buron;1910;parliament;Paris 6;Paris;75;Île-de-France;48.85261154174805;2.3332111835479736
Robert, Jules, Ernest Morillon;1910;parliament;Mesnil-sur-oger;Marne;51;Grand Est;48.94827;4.029889
Roger Carour;1910;executive;Lorient;Morbihan;56;Bretagne;47.750364;-3.378025
Roger Devemy;1910;parliament;Thiant;Nord;59;Hauts-de-France;50.300807;3.445877
Roger Menu;1910;senat;Epernay;Marne;51;Grand Est;49.040236;3.960527
Roger Pinoteau;1910;parliament;Reuilly;Indre;36;Centre-Val de Loire;47.084619;2.037058
Roger Ribadeau Dumas;1910;parliament;Chesnay-Rocquencourt;Yvelines;78;Île-de-France;48.8211111;2.131111111111111
Yves du Halgouët;1910;parliament;Paris 16;Paris;75;Île-de-France;48.86101150512695;2.2834136486053467
Alain Barrère;1910;scholar;Bordeaux;Gironde;33;Nouvelle-Aquitaine;44.851897;-0.587877
Achille Peretti;1911;parliament;Ajaccio;Corse-du-Sud;2A;Corse;41.93368;8.715325
Adolphe Chauvin;1911;senat;Cerisy-la-salle;Manche;50;Normandie;49.037159;-1.267066
Alfred Isautier;1911;senat;Saint-Pierre;La Réunion;974;La Réunion;-21.319168;55.486344
Alfred Peugnet;1911;parliament;Vaulx-vraucourt;Pas-de-Calais;62;Hauts-de-France;50.14437;2.909398
Ambroise Brugière;1911;parliament;Messeix;Puy-de-Dôme;63;Auvergne-Rhône-Alpes;45.616962;2.587755
André Barroux;1911;senat;Marsac-en-livradois;Puy-de-Dôme;63;Auvergne-Rhône-Alpes;45.474268;3.722852
André Gauthier;1911;parliament;Marcieu;Isère;38;Auvergne-Rhône-Alpes;45.812674;5.365835
André Guerlin;1911;parliament;Samatan;Gers;32;Occitanie;43.951684;0.672436
André Leroi-Gourhan;1911;scholar;Paris 11;Paris;75;Île-de-France;48.86030960083008;2.3786137104034424
André Puget;1911;executive;Nantes;Loire-Atlantique;44;Pays de la Loire;47.239367;-1.555335
André Rabineau;1911;senat;Cusset;Allier;3;Auvergne-Rhône-Alpes;46.133424;3.47332
André Sanglier;1911;parliament;Saint-Pierre;La Réunion;974;La Réunion;-21.319168;55.486344
Charles Ehrmann;1911;parliament;Paris 6;Paris;75;Île-de-France;48.85261154174805;2.3332111835479736
Christian Fouchet;1911;minister;Saint-germain-en-laye;Yvelines;78;Île-de-France;48.923869;2.111227
Colonel Passy;1911;executive;Paris 16;Paris;75;Île-de-France;48.856305;2.267032
Edmond Thorailler;1911;parliament;Nogent-le-roi;Eure-et-Loir;28;Centre-Val de Loire;48.636765;1.519778
Edouard Soldani;1911;senat;Les Arcs ;Var;83;Provence-Alpes-Côte d'Azur;43.4619;6.4783
Emile Dubuis;1911;parliament;Roanne;Loire;42;Auvergne-Rhône-Alpes;46.029846;4.076013
Fernand Couzinet;1911;parliament;Toulouse;Haute-Garonne;31;Occitanie;43.619765;1.405391
Fernand Lefort;1911;senat;Paris;Paris;75;Île-de-France;48.854446;2.33678
Francis Ripert;1911;parliament;La ciotat;Bouches-du-Rhône;13;Provence-Alpes-Côte d'Azur;43.17618;5.609842
François Prigent;1911;senat;Plouenan;Finistère;29;Bretagne;48.619357;-3.984665
François Schleiter;1911;senat;Verdun;Meuse;55;Grand Est;49.153914;5.365593
Gabrielle Scellier;1911;senat;Le boisle;Somme;80;Hauts-de-France;50.273004;1.981528
Georges Peizerat;1911;parliament;La Léchère;Savoie;73;Auvergne-Rhône-Alpes;45.5262762;6.450394
Georges Pompidou;1911;president;Montboudif;Cantal;15;Auvergne-Rhône-Alpes;45.373385;2.718417
Georges Rougeron;1911;senat;Saint-germain-des-fosses;Allier;3;Auvergne-Rhône-Alpes;46.197819;3.433222
Gilbert Schwartz;1911;parliament;Armancourt;Oise;60;Hauts-de-France;49.372687;2.758278
Gilberte Roca Née Cau;1911;parliament;Cailhau;Aude;11;Occitanie;43.144066;2.132294
Guy Jarrosson;1911;parliament;Lyon;Rhône;69;Auvergne-Rhône-Alpes;45.733873;4.828499
Hector Rolland;1911;parliament;Neuilly-sur-Seine;Hauts-de-Seine;92;Île-de-France;48.886191;2.265869
Henri Claireaux;1911;senat;Saint-Pierre;La Réunion;974;La Réunion;-21.319168;55.486344
Henri Védrines;1911;parliament;Neuilly-sur-Seine;Hauts-de-Seine;92;Île-de-France;48.886191;2.265869
Jacques-Henry Gros;1911;executive;Gassin;Var;83;Provence-Alpes-Côte d'Azur;43.134973;5.853916
Jean Baridon;1911;parliament;Freissinieres;Hautes-Alpes;5;Provence-Alpes-Côte d'Azur;44.763494;6.529125
Jean Garnier;1911;parliament;Saint-eugene;Saône-et-Loire;71;Bourgogne-Franche-Comté;46.796374;4.420546
Jean Mersch;1911;executive;Gentilly;Val-de-Marne;94;Île-de-France;48.81641;2.348146
Jean Toury;1911;parliament;Montgivray;Indre;36;Centre-Val de Loire;46.593229;1.97901
Jean-Louis Chazelle;1911;parliament;Andrézieux-Bouthéon ;Loire;42;Auvergne-Rhône-Alpes;45.5522;4.2611
Jean-Paul de Rocca-Serra;1911;senat;Bonifacio;Corse-du-Sud;2A;Corse;41.378115;9.211359
Jean, Clément Masse;1911;parliament;Marseille;Bouches-du-Rhône;13;Provence-Alpes-Côte d'Azur;43.279396;5.381923
Jeannil, Fernand, Edouard Dumortier;1911;parliament;Attichy;Oise;60;Hauts-de-France;49.419568;3.043308
Laurent Bilbeau;1911;parliament;Chalivoy-milon;Cher;18;Centre-Val de Loire;46.858587;2.710163
Léon Eeckhoutte;1911;senat;Fins;Somme;80;Hauts-de-France;50.035439;3.042744
Lionel de Tinguy du Pouet;1911;senat;Paris 16;Paris;75;Île-de-France;48.86101150512695;2.2834136486053467
Lionel de Tinguy du Pouët;1911;parliament;Paris 16;Paris;75;Île-de-France;48.86101150512695;2.2834136486053467
Louis de Guiringaud;1911;minister;Limoges;Haute-Vienne;87;Nouvelle-Aquitaine;45.856159;1.221254
Louis, Alexis Delmas;1911;parliament;Salles-curan;Aveyron;12;Occitanie;44.170854;2.789465
Marcel Gargar;1911;senat;Pointe-a-pitre;Guadeloupe;971;Guadeloupe;16.23619;-61.537759
Marcel Mathy;1911;senat;Brienne;Saône-et-Loire;71;Bourgogne-Franche-Comté;46.5568589;5.0205355
Marcel, Louis, Julien Anthonioz;1911;parliament;Divonne-les-bains;Ain;1;Auvergne-Rhône-Alpes;46.362372;6.13642
Maurice Schumann;1911;minister;Paris 16;Paris;75;Île-de-France;48.86101150512695;2.2834136486053467
Michel de Pontbriand;1911;senat;Erbray;Loire-Atlantique;44;Pays de la Loire;47.669993;-1.332139
Nestor Rombeaut;1911;parliament;Aulnoye-Aymeries ;Nord;59;Hauts-de-France;50.2031;3.8400
Paul Coste-Floret;1911;parliament;Montpellier;Hérault;34;Occitanie;43.610476;3.87048
Paul Robert;1911;parliament;Beaufremont;Vosges;88;Grand Est;48.256747;5.753829
Paul Thillard;1911;parliament;Arras;Pas-de-Calais;62;Hauts-de-France;50.291427;2.767659
Pierre Cornet;1911;parliament;Montelimar;Drôme;26;Auvergne-Rhône-Alpes;44.553424;4.745639
Pierre Couillard;1911;executive;Nancy;Meurthe-et-Moselle;54;Grand Est;48.688135;6.171263
Pierre de Calan;1911;executive;Paris 7;Paris;75;Île-de-France;48.853954;2.312864
Pierre Pouyade;1911;parliament;Cerisiers;Yonne;89;Bourgogne-Franche-Comté;48.126818;3.510366
Pierre Weber;1911;parliament;Lyon;Rhône;69;Auvergne-Rhône-Alpes;45.733873;4.828499
Raymond Grandsart;1911;parliament;Montreuil;Seine-Saint-Denis;93;Île-de-France;48.872323;2.455188
Raymond Hanin;1911;parliament;Joinville;Haute-Marne;52;Grand Est;48.439192;5.152956
Robert Trémollières;1911;parliament;Cahors;Lot;46;Occitanie;44.457559;1.438342
Roger du Halgouet;1911;senat;Paris 7;Paris;75;Île-de-France;48.857215881347656;2.3098840713500977
Toussaint Merle;1911;parliament;La seyne-sur-mer;Var;83;Provence-Alpes-Côte d'Azur;43.093325;5.879651
Victor Rault;1911;parliament;Saint-brieuc;Côtes-d'Armor;22;Bretagne;48.515912;-2.768667
Victor Sablé;1911;parliament;Fort-de-france;Martinique;972;Martinique;14.636435;-61.064096
Guy Debeyre;1911;scholar;Lille;Nord;59;Hauts-de-France;50.630951;3.045391
Adrien Verkindere;1912;parliament;Halluin;Nord;59;Hauts-de-France;50.774135;3.125231
Aimé Bergeal;1912;senat;Lescure-d'albigeois;Tarn;81;Occitanie;43.962938;2.185909
André Chastel;1912;scholar;Paris 12;Paris;75;Île-de-France;48.836666107177734;2.403441905975342
Bernard Le Douarec;1912;parliament;Montfort-sur-meu;Ille-et-Vilaine;35;Bretagne;48.137748;-1.942654
Camille Petit;1912;parliament;Saint-esprit;Martinique;972;Martinique;14.552103;-60.917261
Charles Malouin;1912;parliament;Terres de Durance;Calvados;14;Normandie;48.9164608;-0.6899289
Claude Delorme;1912;parliament;Marseille;Bouches-du-Rhône;13;Provence-Alpes-Côte d'Azur;43.279396;5.381923
Claude Gerbet;1912;parliament;Chartres;Eure-et-Loir;28;Centre-Val de Loire;48.435568;1.48376
David Rousset;1912;parliament;Roanne;Loire;42;Auvergne-Rhône-Alpes;46.029846;4.076013
Didier Eloy;1912;parliament;Hirson;Aisne;2;Hauts-de-France;49.920487;4.080538
Edouard Thibault;1912;parliament;Sablé-sur-Sarthe ;Sarthe;72;Pays de la Loire;47.8400;-0.3300
Félix, Baptiste, Calixte Viallet;1912;parliament;Langogne;Lozère;48;Occitanie;44.728558;3.848815
François Japiot;1912;parliament;Chalons-sur-marne;Marne;51;Grand Est;48.898266;4.339489
Georges Pianta;1912;parliament;Thonon-les-bains;Haute-Savoie;74;Auvergne-Rhône-Alpes;46.374258;6.484104
Guy Beck;1912;parliament;Gueret;Creuse;23;Nouvelle-Aquitaine;46.171794;1.874985
Guy Murat;1912;parliament;Cajarc;Lot;46;Occitanie;44.495076;1.833606
Henri Fournis;1912;senat;Guemene-penfao;Loire-Atlantique;44;Pays de la Loire;47.644886;-1.820263
Henri Guidet;1912;parliament;Bapaume;Pas-de-Calais;62;Hauts-de-France;50.474092;1.593307
Henri Trémolet de Villers;1912;parliament;Paris 5;Paris;75;Île-de-France;48.8465576171875;2.3515963554382324
Henry Sers;1912;parliament;Saint-denis;La Réunion;974;La Réunion;-20.894557;55.491284
Hubert Martin;1912;senat;Val de Briey;Meurthe-et-Moselle;54;Grand Est;49.256168;6.023892
Jacques Féron;1912;parliament;Houilles;Yvelines;78;Île-de-France;48.926572;2.186545
Jacques Lacarin;1912;parliament;Paris 11;Paris;75;Île-de-France;48.86030960083008;2.3786137104034424
Jacques Moquet;1912;senat;Longpont;Aisne;2;Hauts-de-France;49.277482;3.214319
Jacques Poch;1912;executive;Paris 18;Paris;75;Île-de-France;48.896214;2.362997
Jacques Soufflet;1912;minister;Lesbœufs;Somme;80;Hauts-de-France;50.041892;2.86276
Jacques, Emile, Yves Soustelle;1912;parliament;Montpellier;Hérault;34;Occitanie;43.610476;3.87048
Jean Bernard;1912;parliament;Plan;Isère;38;Auvergne-Rhône-Alpes;45.3127154;5.3926155
Jean de Lachomette;1912;senat;Lyon;Rhône;69;Auvergne-Rhône-Alpes;45.733873;4.828499
Jean Delvainquière;1912;parliament;Wattrelos;Nord;59;Hauts-de-France;50.711887;3.218738
Jean Simon;1912;executive;Brest;Finistère;29;Bretagne;48.406435;-4.497736
Jean-Paul David;1912;parliament;Mielan;Gers;32;Occitanie;43.426814;0.306824
Jean-Paul Luisi;1912;parliament;Venaco;Haute-Corse;2B;Corse;42.231367;9.185995
Jean, François, Etienne Montalat;1912;parliament;Tulle;Corrèze;19;Nouvelle-Aquitaine;45.267177;1.764073
Jean, Louis Vitel;1912;parliament;Toulon;Var;83;Provence-Alpes-Côte d'Azur;43.136379;5.933443
Joseph Lanet;1912;senat;Puisserguier;Hérault;34;Occitanie;43.372758;3.036323
Léopold Morel;1912;senat;Nice;Alpes-Maritimes;6;Provence-Alpes-Côte d'Azur;43.71273;7.25092
Louis Brives;1912;senat;Assier;Lot;46;Occitanie;44.679581;1.879045
Louis Dupont;1912;parliament;Saulnes;Meurthe-et-Moselle;54;Grand Est;49.524701;5.808283
Louis Lazuech;1912;senat;Montbazens;Aveyron;12;Occitanie;44.478118;2.21512
Louis Philibert;1912;senat;Pertuis;Vaucluse;84;Provence-Alpes-Côte d'Azur;43.690751;5.501097
Louis Talamoni;1912;senat;Vezzani;Haute-Corse;2B;Corse;42.167424;9.255634
Louis, Auguste Philibert;1912;parliament;Pertuis;Vaucluse;84;Provence-Alpes-Côte d'Azur;43.690751;5.501097
Louis, Henri Fourmont;1912;parliament;Saint-denis-d'anjou;Mayenne;53;Pays de la Loire;47.789419;-0.436582
Louis, Jacques, François, Michel Michaud;1912;parliament;Puteaux;Hauts-de-Seine;92;Île-de-France;48.884156;2.237199
Lucien, Jean Dutard;1912;parliament;Le Buisson-de-Cadouin;Dordogne;24;Nouvelle-Aquitaine;44.81283;0.879335
Marceau Gauthier;1912;parliament;Fourmies;Nord;59;Hauts-de-France;50.015147;4.061667
Marcel Audy;1912;senat;Ussel;Corrèze;19;Nouvelle-Aquitaine;45.557803;2.344129
Marie-Claude Vaillant-Couturier Née Vogel;1912;parliament;Paris 6;Paris;75;Île-de-France;48.85261154174805;2.3332111835479736
Michel Debré;1912;minister;Paris 7;Paris;75;Île-de-France;48.857215881347656;2.3098840713500977
Michel Maurice-Bokanowski;1912;senat;Paris 8;Paris;75;Île-de-France;48.87311553955078;2.310023307800293
Michel, Alfred Maurice-Bokanowski;1912;parliament;Paris 8;Paris;75;Île-de-France;48.87311553955078;2.310023307800293
Paul Rivière;1912;parliament;Montagny;Loire;42;Auvergne-Rhône-Alpes;46.031592;4.227712
Paul-Marie Duval;1912;scholar;Paris 7;Paris;75;Île-de-France;48.857215881347656;2.3098840713500977
Paul, Antoine, Joseph Cermolacce;1912;parliament;Marseille;Bouches-du-Rhône;13;Provence-Alpes-Côte d'Azur;43.279396;5.381923
Philippe Rivain;1912;parliament;Paris 7;Paris;75;Île-de-France;48.857215881347656;2.3098840713500977
Pierre Barbier;1912;senat;Brinon-sur-beuvron;Nièvre;58;Bourgogne-Franche-Comté;47.280787;3.493321
Pierre Bourda;1912;senat;Vic-en-bigorre;Hautes-Pyrénées;65;Occitanie;43.385428;0.052102
Pierre Courcelle;1912;scholar;Orleans;Loiret;45;Centre-Val de Loire;47.873569;1.911358
Pierre Pauliac;1912;executive;Villeneuve-sur-lot;Lot-et-Garonne;47;Nouvelle-Aquitaine;44.416152;0.747052
Pierre Vertadier;1912;parliament;Poitiers;Vienne;86;Nouvelle-Aquitaine;46.586578;0.35668
Raymond Splingard;1912;senat;Hirson;Aisne;2;Hauts-de-France;49.920487;4.080538
Raymond Valenet;1912;parliament;Paris 13;Paris;75;Île-de-France;48.836666107177734;2.403441905975342
Raymond Villatte;1912;senat;Tours;Indre-et-Loire;37;Centre-Val de Loire;47.395476;0.695848
René Métayer;1912;parliament;Poitiers;Vienne;86;Nouvelle-Aquitaine;46.586578;0.35668
René Toribio;1912;senat;Lamentin;Guadeloupe;971;Guadeloupe;16.246057;-61.650857
Robert Drapier;1912;parliament;Longuyon;Meurthe-et-Moselle;54;Grand Est;49.450367;5.599437
Robert Hirsch;1912;executive;Paris 17;Paris;75;Île-de-France;48.887702;2.304844
Robert Hostier;1912;parliament;Saint-pierre-le-moutier;Nièvre;58;Bourgogne-Franche-Comté;46.784841;3.118193
Robert, Victor, Marcel, François Ballanger;1912;parliament;Nantes;Loire-Atlantique;44;Pays de la Loire;47.239367;-1.555335
Roger Coste;1912;parliament;Grospierres;Ardèche;7;Auvergne-Rhône-Alpes;44.394617;4.286526
Roger Roucaute;1912;parliament;Cendrars;Gard;30;Occitanie;44.150788;4.035751
Yves Le Foll;1912;parliament;Pleyben;Finistère;29;Bretagne;48.239335;-3.979163
Charles Foulon;1912;scholar;Marseille;Bouches-du-Rhône;13;Provence-Alpes-Côte d'Azur;43.282;5.405
Jacques Scherer;1912;scholar;Paris 10;Paris;75;Île-de-France;48.88143;2.366774
Pierre Grimal;1912;scholar;Paris 15;Paris;75;Île-de-France;48.84162;2.295289
Aimé, Benjamin, François Paquet;1913;parliament;Saint-vincent-de-mercuze;Isère;38;Auvergne-Rhône-Alpes;45.376367;5.956584
Aimé, Fernand, David Césaire;1913;parliament;Basse-pointe;Martinique;972;Martinique;14.86497;-61.109362
Albert Dassié;1913;parliament;Pau;Pyrénées-Atlantiques;64;Nouvelle-Aquitaine;43.313503;-0.343106
André Glon;1913;parliament;Loudeac;Côtes-d'Armor;22;Bretagne;48.17674;-2.7512
André Lacaze;1913;parliament;Villereal;Lot-et-Garonne;47;Nouvelle-Aquitaine;44.649947;0.602528
André, Jules, Victor Mancey;1913;parliament;Camblain-chatelain;Pas-de-Calais;62;Hauts-de-France;50.48364;2.461872
Bernard Lemarié;1913;senat;Caulnes;Côtes-d'Armor;22;Bretagne;48.303159;-2.159946
Bernard Muller;1913;parliament;Saint-etienne;Loire;42;Auvergne-Rhône-Alpes;45.430195;4.370045
Claude Mont;1913;senat;Pouilly-sous-charlieu;Loire;42;Auvergne-Rhône-Alpes;46.138533;4.130627
Edmond Valcin;1913;senat;Riviere-salee;Martinique;972;Martinique;14.524677;-60.961046
Emile Luciani;1913;parliament;Paris 7;Paris;75;Île-de-France;48.857215881347656;2.3098840713500977
François Delmas;1913;parliament;Montpellier;Hérault;34;Occitanie;43.610476;3.87048
Frédéric Dugoujon;1913;parliament;Champagne-au-mont-d'or;Rhône;69;Auvergne-Rhône-Alpes;45.798586;4.784087
Georges Boulanger;1913;senat;Saint-maur-des-fosses;Val-de-Marne;94;Île-de-France;48.799943;2.491801
Georges Spenale;1913;senat;Carcassonne;Aude;11;Occitanie;43.206781;2.349415
Georges Spénale;1913;parliament;Carcassonne;Aude;11;Occitanie;43.206781;2.349415
Gilbert Faure;1913;parliament;Cajarc;Lot;46;Occitanie;44.495076;1.833606
Hector, Joseph Rivierez;1913;parliament;Cayenne;Guyane;973;Guyane;4.925248;-52.311583
Henri Blary;1913;parliament;Tourcoing;Nord;59;Hauts-de-France;50.720797;3.157799
Henri, Louis Chaze;1913;parliament;Thueyts;Ardèche;7;Auvergne-Rhône-Alpes;44.689639;4.208972
Jacques Foccart;1913;minister;Ambrieres-les-vallees;Mayenne;53;Pays de la Loire;48.426329;-0.619444
Jacques Fouchier;1913;parliament;Mauze-sur-le-mignon;Deux-Sèvres;79;Nouvelle-Aquitaine;46.191469;-0.644227
Jacques Raphaël-Leygues;1913;parliament;Paris 16;Paris;75;Île-de-France;48.86101150512695;2.2834136486053467
Jean Bénard-Mousseaux;1913;parliament;Le mans;Sarthe;72;Pays de la Loire;47.999338;0.190969
Jean Cauchon;1913;senat;Verneuil d'Avre et d'Iton;Eure;27;Normandie;48.7392;0.9272
Jean Chamant;1913;minister;Chagny;Saône-et-Loire;71;Bourgogne-Franche-Comté;46.905365;4.75628
Jean Chambon;1913;parliament;Pageas;Haute-Vienne;87;Nouvelle-Aquitaine;45.696976;1.036064
Jean Legaret;1913;senat;Ambert;Puy-de-Dôme;63;Auvergne-Rhône-Alpes;45.549591;3.745486
Jean Risbourg;1913;parliament;Pommereuil;Nord;59;Hauts-de-France;50.1127197;3.5964643
Jean-Baptiste Mathias;1913;senat;Albertville;Savoie;73;Auvergne-Rhône-Alpes;45.671004;6.396774
Jean, Jules, Eugène, Marie Chamant;1913;parliament;Chagny;Saône-et-Loire;71;Bourgogne-Franche-Comté;46.905365;4.75628
Louis Escande;1913;parliament;Massat;Ariège;9;Occitanie;42.8846;1.358579
Lucien Gautier;1913;senat;Saumur;Maine-et-Loire;49;Pays de la Loire;47.261814;-0.082764
Marc Jacquet;1913;minister;Mercy-le-bas;Meurthe-et-Moselle;54;Grand Est;49.389217;5.754965
Marcel Boulangé;1913;senat;Gugney-aux-aulx;Vosges;88;Grand Est;48.30287;6.269328
Maurice Andrieu;1913;parliament;Rodez;Aveyron;12;Occitanie;44.342995;2.568962
Maurice Pic;1913;senat;Saint-christol;Hérault;84;Provence-Alpes-Côte d'Azur;43.446315;3.372114
Maurice, Joseph, Henri Lenormand;1913;parliament;Macon;Saône-et-Loire;71;Bourgogne-Franche-Comté;46.308968;4.835898
Michel Couillet;1913;parliament;Cayeux-sur-mer;Somme;80;Hauts-de-France;50.192156;1.519656
Nicole de Hauteclocque;1913;senat;Commercy;Meuse;55;Grand Est;48.758768;5.588862
Paul Guillaumot;1913;senat;Molesmes;Côte-d'Or;21;Bourgogne-Franche-Comté;47.934523;4.356442
Paul Guillon;1913;parliament;Saint-Martin-la-Pallu;Vienne;86;Nouvelle-Aquitaine;46.744113;0.32539
Paul Lacavé;1913;parliament;Capesterre-Belle-Eau;Guadeloupe;971;Guadeloupe;16.0422;-61.5653
Pierre Carous;1913;senat;Vieux-conde;Nord;59;Hauts-de-France;50.474001;3.567392
Pierre Chaussade;1913;executive;Bergerac;Dordogne;24;Nouvelle-Aquitaine;44.85304;0.482291
Pierre Gaudin;1913;senat;Frejus;Var;83;Provence-Alpes-Côte d'Azur;43.445657;6.770515
Pierre Girardot;1913;parliament;Laragne-Montéglin ;Hautes-Alpes;5;Provence-Alpes-Côte d'Azur;44.3150;5.8230
Pierre Laffont;1913;parliament;Marseille;Bouches-du-Rhône;13;Provence-Alpes-Côte d'Azur;43.279396;5.381923
Pierre, Auguste, Eugène Gaudin;1913;parliament;Frejus;Var;83;Provence-Alpes-Côte d'Azur;43.445657;6.770515
Pierre, Guy Coulon;1913;parliament;Paris 17;Paris;75;Île-de-France;48.88784408569336;2.3070974349975586
Pierre, Joseph, Louis, Léon Vitter;1913;parliament;Gray;Haute-Saône;70;Bourgogne-Franche-Comté;47.440426;5.599432
Raymond Julien;1913;parliament;Angers;Maine-et-Loire;49;Pays de la Loire;47.477612;-0.547612
Renaud Gillet;1913;executive;Lyon;Rhône;69;Auvergne-Rhône-Alpes;45.758;4.835
René Cassagne;1913;parliament;Salignac;Gironde;33;Nouvelle-Aquitaine;45.001596;-0.418743
René Tinant;1913;senat;Cauroy;Ardennes;8;Grand Est;49.347522;4.470832
Robert Manceau;1913;parliament;Saint-jammes-sur-sarthe;Sarthe;72;Pays de la Loire;48.138351;0.155434
Roger Dusseaulx;1913;minister;Paris 12;Paris;75;Île-de-France;48.836666107177734;2.403441905975342
Roger Garaudy;1913;senat;Marseille;Bouches-du-Rhône;13;Provence-Alpes-Côte d'Azur;43.282;5.405
Roger Lagrange;1913;senat;Vaux-en-pre;Saône-et-Loire;71;Bourgogne-Franche-Comté;46.624772;4.6026
Roger, Albert, Marie Crespin;1913;parliament;Brest;Finistère;29;Bretagne;48.390387;-4.501759
Roger, Armand Dusseaulx;1913;parliament;Paris 12;Paris;75;Île-de-France;48.836666107177734;2.403441905975342
Roland Boudet;1913;parliament;Tourouvre au Perche;Orne;61;Normandie;48.5902778;0.6513888888888889
Adhémar Esmein;1913;scholar;Touvérac;Charente;16;Nouvelle-Aquitaine;45.644105;0.148008
Claude-Edmonde Magny;1913;scholar;Belfahy;Haute-Saône;70;Bourgogne-Franche-Comté;47.473904;5.379161
Paul Ricœur;1913;scholar;Valence;Drôme;26;Auvergne-Rhône-Alpes;44.580095;4.753405
Philippe Wolff;1913;scholar;Montmorency;Val-d'Oise;95;Île-de-France;48.989397;2.321988
André Desmulliez;1914;parliament;Touflers;Nord;59;Hauts-de-France;50.660527;3.231548
Arthur, Gustave, Louis Notebart;1914;parliament;Lille;Nord;59;Hauts-de-France;50.639453;3.017588
Benjamin Catry;1914;parliament;Wambrechies;Nord;59;Hauts-de-France;50.695971;3.046954
Benoît Macquet;1914;parliament;Berck;Pas-de-Calais;62;Hauts-de-France;50.406799;1.56221
Bertrand Motte;1914;parliament;Villeneuve-d'Ascq;Nord;59;Hauts-de-France;50.63036;3.101812
Cécile Goldet;1914;senat;Pau;Pyrénées-Atlantiques;64;Nouvelle-Aquitaine;43.313503;-0.343106
Charles Cathala;1914;senat;Graulhet;Tarn;81;Occitanie;43.762721;1.992478
Charles Privat;1914;parliament;Saint-maurice-de-cazevieille;Gard;30;Occitanie;44.030119;4.233665
Daniel Dreyfous-Ducas;1914;parliament;Paris 16;Paris;75;Île-de-France;48.86101150512695;2.2834136486053467
Emile Jourdan;1914;parliament;Chamborigaud;Gard;30;Occitanie;44.303556;3.972211
François Leizour;1914;parliament;Plougrescant;Côtes-d'Armor;22;Bretagne;48.852968;-3.211548
François Perrin;1914;parliament;Le bouchage;Isère;38;Auvergne-Rhône-Alpes;45.671431;5.525172
François-Henri Raymond;1914;executive;Paris 14;Paris;75;Île-de-France;48.830108;2.323026
Gabriel de Poulpiquet;1914;parliament;Milizac-Guipronvel;Finistère;29;Bretagne;48.468098;-4.56043
Georges, Raoul Gosnat;1914;parliament;Bourges;Cher;18;Centre-Val de Loire;47.082882;2.402294
Hégésippe Ibéné;1914;parliament;Sainte-anne;Guadeloupe;971;Guadeloupe;16.258454;-61.527179
Henri Caillavet;1914;senat;Agen;Lot-et-Garonne;47;Nouvelle-Aquitaine;44.202304;0.631041
Henri Sicard;1914;parliament;Saint-sauveur;Dordogne;24;Nouvelle-Aquitaine;44.869697;0.582385
Jacques Descours Desacres;1914;senat;Paris 8;Paris;75;Île-de-France;48.87311553955078;2.310023307800293
Jacques Douzans;1914;parliament;Mende;Lozère;48;Occitanie;44.52643;3.483971
Jean Fichoux;1914;senat;Arzano;Finistère;29;Bretagne;47.894432;-3.449798
Jean Le Lann;1914;parliament;Berrien;Finistère;29;Bretagne;48.220673;-4.272192
Jean Nayrou;1914;senat;Esplas-de-serou;Ariège;9;Occitanie;42.98563;1.36452
Jean-Louis Vigier;1914;senat;Corneilla-del-vercol;Pyrénées-Orientales;66;Occitanie;42.621018;2.956613
Jean-Pierre Blanchet;1914;senat;Bordeaux;Gironde;33;Nouvelle-Aquitaine;44.851897;-0.587877
Jean-Pierre Vernant;1914;scholar;Provins;Seine-et-Marne;77;Île-de-France;48.558668;3.2981
Joseph Rivière;1914;parliament;Montagny;Loire;42;Auvergne-Rhône-Alpes;46.031592;4.227712
Louis Longequeue;1914;senat;Saint-leonard-de-noblat;Haute-Vienne;87;Nouvelle-Aquitaine;45.840558;1.497755
Lucien Bernier;1914;senat;Saint-Francois;Guadeloupe;971;Guadeloupe;16.274237;-61.267898
Lucien Pignion;1914;parliament;Saint-pierre-brouck;Nord;59;Hauts-de-France;50.894571;2.192746
Marc Castex;1914;senat;Marambat;Gers;32;Occitanie;43.776748;0.313454
Marcel Souquet;1914;senat;Chalabre;Aude;11;Occitanie;42.978279;2.003909
Mariani Maximin;1914;parliament;Port-louis;Guadeloupe;971;Guadeloupe;16.421325;-61.487411
Maurice Cattin-Bazin;1914;parliament;Saint-albin-de-vaulserre;Isère;38;Auvergne-Rhône-Alpes;45.498935;5.699065
Michel Kauffmann;1914;senat;Strasbourg;Bas-Rhin;67;Grand Est;48.579831;7.761454
Noël Berrier;1914;senat;Avallon;Yonne;89;Bourgogne-Franche-Comté;47.4900;3.9100
Noël Chapuis;1914;parliament;Vienne;Isère;38;Auvergne-Rhône-Alpes;45.526486;4.88366
Octave Bajeux;1914;senat;Radinghem-en-weppes;Nord;59;Hauts-de-France;50.627924;2.898191
Paul, Marie, Emile Bellec;1914;parliament;Saint-Malo;Ille-et-Vilaine;35;Bretagne;48.6494444;2.026111111111111
Pierre Lagorce;1914;parliament;Pugnac;Gironde;33;Nouvelle-Aquitaine;45.08558;-0.504649
Pierre Noal;1914;parliament;Paris 12;Paris;75;Île-de-France;48.836666107177734;2.403441905975342
Raoul Bayou;1914;parliament;Cessenon-sur-Orb ;Hérault;34;Occitanie;43.45125;3.063117
Raymond Marcellin;1914;minister;Sezanne;Marne;51;Grand Est;48.718482;3.721712
Raymond Mondon;1914;minister;Ancy-sur-moselle;Moselle;57;Grand Est;49.063229;6.063392
Raymond Rejaud;1914;parliament;Courbevoie;Hauts-de-Seine;92;Île-de-France;48.897974;2.257057
Robert Gourault;1914;parliament;Vezieres;Vienne;86;Nouvelle-Aquitaine;47.093525;0.120095
Robert Richoux;1914;parliament;Fumay;Ardennes;8;Grand Est;49.986865;4.694259
Roger Boileau;1914;senat;Nancy;Meurthe-et-Moselle;54;Grand Est;48.688135;6.171263
Valère Clément;1914;parliament;Saint-denis;La Réunion;974;La Réunion;-20.894557;55.491284
Jacques Robichez;1914;scholar;La madeleine;Nord;59;Hauts-de-France;50.630951;3.045391
Paul Marie Gaudemet;1914;scholar;Dijon;Côte-d'Or;21;Bourgogne-Franche-Comté;47.331848;5.033601
Alban Voisin;1915;parliament;Obies;Nord;59;Hauts-de-France;50.26941;3.782084
Albert Catalifaud;1915;parliament;Le vigen;Haute-Vienne;87;Nouvelle-Aquitaine;45.752552;1.303108
Albert Fouet;1915;parliament;Savigny-sous-faye;Vienne;86;Nouvelle-Aquitaine;46.868585;0.285664
Albert Sirgue;1915;senat;Coupiac ;Aveyron;12;Occitanie;43.9536;2.5819
Albert Voilquin;1915;senat;Neufchateau;Vosges;88;Grand Est;48.35714;5.709985
