name,tag,dob,pob_raw,lat,lon,dep_num,dep_name,region,url,pob,error
Catégorie:Dirigeant français d'entreprise de jeux vidéo,ceo,,Unknown,,,,,,https://fr.wikipedia.org/wiki/Cat%C3%A9gorie:Dirigeant_fran%C3%A7ais_d%27entreprise_de_jeux_vid%C3%A9o,Unknown,
Laurent Adamowicz,ceo,,Unknown,,,,,,https://fr.wikipedia.org/wiki/Laurent_Adamowicz,Unknown,
Catégorie:Chef d'entreprise en Nouvelle-Calédonie,ceo,,Unknown,,,,,,https://fr.wikipedia.org/wiki/Cat%C3%A9gorie:Chef_d%27entreprise_en_Nouvelle-Cal%C3%A9donie,Unknown,
Catégorie:Dirigeante française d'entreprise de jeux vidéo,ceo,,Unknown,,,,,,https://fr.wikipedia.org/wiki/Cat%C3%A9gorie:Dirigeante_fran%C3%A7aise_d%27entreprise_de_jeux_vid%C3%A9o,Unknown,
Christian Aghroum,ceo,1960.0,Mans,47.993378,0.191169,72,Sarthe,Pays de la Loire,https://fr.wikipedia.org/wiki/Christian_Aghroum,Le Mans,
Jacqueline Aglietta,ceo,1941.0,Paris,48.859,2.347,75,Paris,Île-de-France,https://fr.wikipedia.org/wiki/Jacqueline_Aglietta,Paris,
Jean-Paul Agon,ceo,1956.0,Boulogne-Billancourt,48.837799,2.243202,92,Hauts-de-Seine,Île-de-France,https://fr.wikipedia.org/wiki/Jean-Paul_Agon,Boulogne-Billancourt,
Djamel Agaoua,ceo,1969.0,Marseille,43.282,5.405,13,Bouches-du-Rhône,Provence-Alpes-Côte d'Azur,https://fr.wikipedia.org/wiki/Djamel_Agaoua,Marseille,
Clément Alteresco,ceo,,Unknown,,,,,,https://fr.wikipedia.org/wiki/Cl%C3%A9ment_Alteresco,Unknown,
Charles-César d'Amat,ceo,1978.0,Paris,48.859,2.347,75,Paris,Île-de-France,https://fr.wikipedia.org/wiki/Charles-C%C3%A9sar_d%27Amat,Paris,
Nicolas d'Andoque,ceo,1931.0,Narbonne,47.310907,0.648608,37,Indre-et-Loire,Centre-Val de Loire,https://fr.wikipedia.org/wiki/Nicolas_d%27Andoque,Joué-lès-Tours,
Henri Marie Joseph Allard,ceo,1894.0,Douai,50.379896,3.094897,59,Nord,Hauts-de-France,https://fr.wikipedia.org/wiki/Henri_Marie_Joseph_Allard,Douai,
Pierre Alby,ceo,1921.0,Louveciennes,48.862477,2.118824,78,Yvelines,Île-de-France,https://fr.wikipedia.org/wiki/Pierre_Alby,Louveciennes,
Olivier Andriès,ceo,1962.0,Unknown,,,,,,https://fr.wikipedia.org/wiki/Olivier_Andri%C3%A8s,Unknown,
Emmanuel d'André,ceo,1937.0,Uzès,44.021276,4.415586,30,Gard,Occitanie,https://fr.wikipedia.org/wiki/Emmanuel_d%27Andr%C3%A9,Uzès,
Jonathan Anguelov,ceo,1986.0,Unknown,,,,,,https://fr.wikipedia.org/wiki/Jonathan_Anguelov,Unknown,
Jasmine Anteunis,ceo,1991.0,Unknown,,,,,,https://fr.wikipedia.org/wiki/Jasmine_Anteunis,Unknown,
Faouzi Annajah,ceo,1993.0,France,47.925801,-1.900942,35,Ille-et-Vilaine,Bretagne,https://fr.wikipedia.org/wiki/Faouzi_Annajah,Guignen,
Gustave Anduze-Faris,ceo,1892.0,Toulouse,43.604082,1.433805,31,Haute-Garonne,Occitanie,https://fr.wikipedia.org/wiki/Gustave_Anduze-Faris,Toulouse,
Karine Arabian,ceo,1967.0,Paris,48.859,2.347,75,Paris,Île-de-France,https://fr.wikipedia.org/wiki/Karine_Arabian,Paris,
Bernard Arnault,ceo,1949.0,Roubaix,50.688454,3.183662,59,Nord,Hauts-de-France,https://fr.wikipedia.org/wiki/Bernard_Arnault,Roubaix,
François Astoin,ceo,,Unknown,,,,,,https://fr.wikipedia.org/wiki/Fran%C3%A7ois_Astoin,Unknown,
François Asselin,ceo,1964.0,Thouars,46.981613,-0.233224,79,Deux-Sèvres,Nouvelle-Aquitaine,https://fr.wikipedia.org/wiki/Fran%C3%A7ois_Asselin,Thouars,
Alexis Aron,ceo,1879.0,Nîmes,43.814652,4.356289,30,Gard,Occitanie,https://fr.wikipedia.org/wiki/Alexis_Aron,Nîmes,
Jean Aubert (ingénieur),ceo,1894.0,Unknown,,,,,,https://fr.wikipedia.org/wiki/Jean_Aubert_(ing%C3%A9nieur),Unknown,
Robert Aylé,ceo,1899.0,Paris 17,48.887702,2.304844,75,Paris,Île-de-France,https://fr.wikipedia.org/wiki/Robert_Ayl%C3%A9,Paris 17e Arrondissement,
Jules Aubrun,ceo,1881.0,Montluçon,46.342307,2.604952,03,Allier,Auvergne-Rhône-Alpes,https://fr.wikipedia.org/wiki/Jules_Aubrun,Montluçon,
Jean d'Aulan,ceo,1900.0,Savasse,44.608759,4.772904,26,Drôme,Auvergne-Rhône-Alpes,https://fr.wikipedia.org/wiki/Jean_d%27Aulan,Savasse,
Antoine Aymar,ceo,1888.0,Saint-Marsal,42.536308,2.619124,66,Pyrénées-Orientales,Occitanie,https://fr.wikipedia.org/wiki/Antoine_Aymar,Saint-Marsal,
Pierre Azaria,ceo,1865.0,Caire,43.247401,2.07783,11,Aude,Occitanie,https://fr.wikipedia.org/wiki/Pierre_Azaria,Villasavary,
Théophile Bader,ceo,1864.0,Dambach-la-Ville,48.32498,7.430445,67,Bas-Rhin,Grand Est,https://fr.wikipedia.org/wiki/Th%C3%A9ophile_Bader,Dambach-la-Ville,
Serge Babary,ceo,1946.0,Tours,47.395476,0.695848,37,Indre-et-Loire,Centre-Val de Loire,https://fr.wikipedia.org/wiki/Serge_Babary,Tours,
Christophe Balestra,ceo,,Unknown,,,,,,https://fr.wikipedia.org/wiki/Christophe_Balestra,Unknown,
Georges Badosa,ceo,1903.0,Perpignan,42.701507,2.902811,66,Pyrénées-Orientales,Occitanie,https://fr.wikipedia.org/wiki/Georges_Badosa,Perpignan,
Barbara Belvisi,ceo,1985.0,Paris 19,48.888949,2.396993,75,Paris,Île-de-France,https://fr.wikipedia.org/wiki/Barbara_Belvisi,Paris,
Nathalie Balla,ceo,1967.0,Saint-Germain-en-Laye,48.923869,2.111227,78,Yvelines,Île-de-France,https://fr.wikipedia.org/wiki/Nathalie_Balla,Saint-Germain-en-Laye,
Jean Balas,ceo,1881.0,Vésinet,48.89482,2.130379,78,Yvelines,Île-de-France,https://fr.wikipedia.org/wiki/Jean_Balas,Le Vésinet,
Jacques Baratte,ceo,1898.0,Neuilly-sur-Seine,48.886191,2.265869,92,Hauts-de-Seine,Île-de-France,https://fr.wikipedia.org/wiki/Jacques_Baratte,Neuilly-sur-Seine,
Jean-Julien Baronnet,ceo,1958.0,Bordeaux,44.851897,-0.587877,33,Gironde,Nouvelle-Aquitaine,https://fr.wikipedia.org/wiki/Jean-Julien_Baronnet,Bordeaux,
Anaïs Barut,ceo,1992.0,Revin,48.574528,-3.944976,29,Finistère,Bretagne,https://fr.wikipedia.org/wiki/Ana%C3%AFs_Barut,Guiclan,
Laurent Bataille,ceo,1955.0,Unknown,,,,,,https://fr.wikipedia.org/wiki/Laurent_Bataille,Unknown,
Lucie Basch,ceo,1992.0,Paris,48.859,2.347,75,Paris,Île-de-France,https://fr.wikipedia.org/wiki/Lucie_Basch,Paris,
Jean-François Baril (homme d'affaires),ceo,1962.0,Boulogne-Billancourt,48.837799,2.243202,92,Hauts-de-Seine,Île-de-France,https://fr.wikipedia.org/wiki/Jean-Fran%C3%A7ois_Baril_(homme_d%27affaires),Boulogne-Billancourt,
Benoit Bazin,ceo,1968.0,Boulogne-Billancourt,48.837799,2.243202,92,Hauts-de-Seine,Île-de-France,https://fr.wikipedia.org/wiki/Benoit_Bazin,Boulogne-Billancourt,
Bernard Baud,ceo,1966.0,Belfort,14.647746,-61.004454,972,Martinique,,https://fr.wikipedia.org/wiki/Bernard_Baud,Le Lamentin,
Jean-Paul Béchat,ceo,1942.0,Seine-et-Oise,49.003436,2.080953,78,Yvelines,Île-de-France,https://fr.wikipedia.org/wiki/Jean-Paul_B%C3%A9chat,Conflans-Sainte-Honorine,
Wilfrid Baumgartner,ceo,1902.0,Paris 7,,,,,,https://fr.wikipedia.org/wiki/Wilfrid_Baumgartner,Paris 7,
Roger Bellon (1905-1974),ceo,1905.0,Suresnes,48.870985,2.218087,92,Hauts-de-Seine,Île-de-France,https://fr.wikipedia.org/wiki/Roger_Bellon_(1905-1974),Suresnes,
André Bénard,ceo,1922.0,Draveil,48.677829,2.412138,91,Essonne,Île-de-France,https://fr.wikipedia.org/wiki/Andr%C3%A9_B%C3%A9nard,Draveil,
Jean Benedetti,ceo,1902.0,Marseille,43.282,5.405,13,Bouches-du-Rhône,Provence-Alpes-Côte d'Azur,https://fr.wikipedia.org/wiki/Jean_Benedetti,Marseille,
Jean-David Bénichou,ceo,1968.0,Marseille,43.282,5.405,13,Bouches-du-Rhône,Provence-Alpes-Côte d'Azur,https://fr.wikipedia.org/wiki/Jean-David_B%C3%A9nichou,Marseille,
Francis Bernard (ingénieur),ceo,,Unknown,,,,,,https://fr.wikipedia.org/wiki/Francis_Bernard_(ing%C3%A9nieur),Unknown,
Maurice Berger (chimiste),ceo,1866.0,Paris 16,48.856305,2.267032,75,Paris,Île-de-France,https://fr.wikipedia.org/wiki/Maurice_Berger_(chimiste),Paris 16e Arrondissement,
Antoine Bernard de Saint-Affrique,ceo,1964.0,Boulogne-Billancourt,48.837799,2.243202,92,Hauts-de-Seine,Île-de-France,https://fr.wikipedia.org/wiki/Antoine_Bernard_de_Saint-Affrique,Boulogne-Billancourt,
Paul Berliet,ceo,1918.0,Lyon,45.758,4.835,69,Rhône,Auvergne-Rhône-Alpes,https://fr.wikipedia.org/wiki/Paul_Berliet,Lyon,
René Berthon,ceo,1914.0,Unknown,,,,,,https://fr.wikipedia.org/wiki/Ren%C3%A9_Berthon,Unknown,
Michel Bernard (dirigeant d'entreprises),ceo,1943.0,Bourges,42.962755,1.861999,09,Ariège,Occitanie,https://fr.wikipedia.org/wiki/Michel_Bernard_(dirigeant_d%27entreprises),Laroque-d'Olmes,
Raymond Berr,ceo,1888.0,Auschwitz,,,,,,https://fr.wikipedia.org/wiki/Raymond_Berr,Auschwitz,
Georges Besse,ceo,1927.0,Clermont-Ferrand,45.786671,3.107055,63,Puy-de-Dôme,Auvergne-Rhône-Alpes,https://fr.wikipedia.org/wiki/Georges_Besse,Clermont-Ferrand,
Jean-Paul Bigard,ceo,1948.0,Unknown,,,,,,https://fr.wikipedia.org/wiki/Jean-Paul_Bigard,Unknown,
Jean Bertin (ingénieur),ceo,1917.0,Druyes-les-Belles-Fon,47.546524,3.419423,89,Yonne,Bourgogne-Franche-Comté,https://fr.wikipedia.org/wiki/Jean_Bertin_(ing%C3%A9nieur),Druyes-les-Belles-Fontaines,
Serge Biechlin,ceo,1945.0,Buncey,47.82289,4.563727,21,Côte-d'Or,Bourgogne-Franche-Comté,https://fr.wikipedia.org/wiki/Serge_Biechlin,Buncey,
Pierre-Étienne Bindschedler,ceo,1961.0,Lausanne en Suisse,48.086434,-1.663576,35,Ille-et-Vilaine,Bretagne,https://fr.wikipedia.org/wiki/Pierre-%C3%89tienne_Bindschedler,Rennes,
Charles Bigot (ingénieur),ceo,1932.0,Angers,47.467471,-0.561615,49,Maine-et-Loire,Pays de la Loire,https://fr.wikipedia.org/wiki/Charles_Bigot_(ing%C3%A9nieur),Angers,
Pierre Bilger,ceo,1940.0,Colmar,48.081779,7.352569,68,Haut-Rhin,Grand Est,https://fr.wikipedia.org/wiki/Pierre_Bilger,Colmar,
Jean-Lou Blachier,ceo,,Lyon,45.758,4.835,69,Rhône,Auvergne-Rhône-Alpes,https://fr.wikipedia.org/wiki/Jean-Lou_Blachier,Lyon,
Christian Blanckaert,ceo,1945.0,Unknown,,,,,,https://fr.wikipedia.org/wiki/Christian_Blanckaert,Unknown,
Yan-Philippe Blanc,ceo,1964.0,Tokyo,48.865104,2.296747,75,Paris,Île-de-France,https://fr.wikipedia.org/wiki/Yan-Philippe_Blanc,Paris,
Bernard Blanc,ceo,1954.0,Vesoul,47.628692,6.157979,70,Haute-Saône,Bourgogne-Franche-Comté,https://fr.wikipedia.org/wiki/Bernard_Blanc,Vesoul,
Christophe Blanchard-Dignac,ceo,1953.0,Bordeaux,,,,,,https://fr.wikipedia.org/wiki/Christophe_Blanchard-Dignac,Bordeaux,
Thierry Blandinières,ceo,1960.0,Brive-la-Gaillarde,45.148038,1.517353,19,Corrèze,Nouvelle-Aquitaine,https://fr.wikipedia.org/wiki/Thierry_Blandini%C3%A8res,Brive-la-Gaillarde,
Robert Blum (dirigeant d'entreprises),ceo,1902.0,Paris 6,48.849268,2.330883,75,Paris,Île-de-France,https://fr.wikipedia.org/wiki/Robert_Blum_(dirigeant_d%27entreprises),Paris 6e Arrondissement,
Frédéric Bohn,ceo,1852.0,Alès,44.125356,4.089242,30,Gard,Occitanie,https://fr.wikipedia.org/wiki/Fr%C3%A9d%C3%A9ric_Bohn,Alès,
Hubert de Boisredon,ceo,1964.0,Suresnes,48.870985,2.218087,92,Hauts-de-Seine,Île-de-France,https://fr.wikipedia.org/wiki/Hubert_de_Boisredon,Suresnes,
Thierry Bolloré,ceo,1963.0,Unknown,,,,,,https://fr.wikipedia.org/wiki/Thierry_Bollor%C3%A9,Unknown,
Michel de Boissieu,ceo,1917.0,Paris 17,48.887702,2.304844,75,Paris,Île-de-France,https://fr.wikipedia.org/wiki/Michel_de_Boissieu,Paris 17e Arrondissement,
Sophie Boissard,ceo,1970.0,Paris,48.859,2.347,75,Paris,Île-de-France,https://fr.wikipedia.org/wiki/Sophie_Boissard,Paris,
Vincent Bolloré,ceo,1952.0,Boulogne-Billancourt,48.837799,2.243202,92,Hauts-de-Seine,Île-de-France,https://fr.wikipedia.org/wiki/Vincent_Bollor%C3%A9,Boulogne-Billancourt,
Christophe Bonduelle,ceo,1959.0,Unknown,,,,,,https://fr.wikipedia.org/wiki/Christophe_Bonduelle,Unknown,
Yves Bonnefont,ceo,1970.0,Boulogne-Billancourt,48.837799,2.243202,92,Hauts-de-Seine,Île-de-France,https://fr.wikipedia.org/wiki/Yves_Bonnefont,Boulogne-Billancourt,
Bernard Bouley,ceo,1950.0,Paris,48.859,2.347,75,Paris,Île-de-France,https://fr.wikipedia.org/wiki/Bernard_Bouley,Paris,
Olivier Bonnassies,ceo,1966.0,Fontenay-aux-Roses,48.789528,2.288257,92,Hauts-de-Seine,Île-de-France,https://fr.wikipedia.org/wiki/Olivier_Bonnassies,Fontenay-aux-Roses,
Karim Bouamrane,ceo,1973.0,février,43.815294,7.300661,06,Alpes-Maritimes,Provence-Alpes-Côte d'Azur,https://fr.wikipedia.org/wiki/Karim_Bouamrane,Châteauneuf-Villevieille,
Germaine Bouloumié,ceo,1885.0,Vittel,48.201324,5.949794,88,Vosges,Grand Est,https://fr.wikipedia.org/wiki/Germaine_Bouloumi%C3%A9,Vittel,
Jean Bouloumié,ceo,1878.0,Vittel,48.201324,5.949794,88,Vosges,Grand Est,https://fr.wikipedia.org/wiki/Jean_Bouloumi%C3%A9,Vittel,
Stéphanie Brillant,ceo,1978.0,Unknown,,,,,,https://fr.wikipedia.org/wiki/St%C3%A9phanie_Brillant,Unknown,
Aimé Bourbonnaud,ceo,1874.0,Limoges,45.856159,1.221254,87,Haute-Vienne,Nouvelle-Aquitaine,https://fr.wikipedia.org/wiki/Aim%C3%A9_Bourbonnaud,Limoges,
Olivier Brandicourt,ceo,1956.0,Casablanca,43.663279,-1.288498,40,Landes,Nouvelle-Aquitaine,https://fr.wikipedia.org/wiki/Olivier_Brandicourt,Saint-Vincent-de-Tyrosse,
Philippe Brassac,ceo,1959.0,Nîmes,43.814652,4.356289,30,Gard,Occitanie,https://fr.wikipedia.org/wiki/Philippe_Brassac,Nîmes,
Olivier Brousse,ceo,1965.0,Brive-la-Gaillarde,45.148038,1.517353,19,Corrèze,Nouvelle-Aquitaine,https://fr.wikipedia.org/wiki/Olivier_Brousse,Brive-la-Gaillarde,
François Brottes,ceo,1956.0,Valence (Drôme),44.580095,4.753405,26,Drôme,Auvergne-Rhône-Alpes,https://fr.wikipedia.org/wiki/Fran%C3%A7ois_Brottes,Montélimar,
Georges de Buffévent,ceo,1938.0,Versailles,48.803019,2.131319,78,Yvelines,Île-de-France,https://fr.wikipedia.org/wiki/Georges_de_Buff%C3%A9vent,Versailles,
Ettore Bugatti,ceo,1881.0,Milan,43.419298,4.977489,13,Bouches-du-Rhône,Provence-Alpes-Côte d'Azur,https://fr.wikipedia.org/wiki/Ettore_Bugatti,Port-de-Bouc,
Eugène Buhan,ceo,1854.0,Bordeaux,44.851897,-0.587877,33,Gironde,Nouvelle-Aquitaine,https://fr.wikipedia.org/wiki/Eug%C3%A8ne_Buhan,Bordeaux,
Régis Bulot,ceo,1947.0,Unknown,,,,,,https://fr.wikipedia.org/wiki/R%C3%A9gis_Bulot,Unknown,
Laurent Burelle,ceo,1949.0,Boulogne-Billancourt,48.837799,2.243202,92,Hauts-de-Seine,Île-de-France,https://fr.wikipedia.org/wiki/Laurent_Burelle,Boulogne-Billancourt,
Éric Cachart,ceo,1956.0,Unknown,,,,,,https://fr.wikipedia.org/wiki/%C3%89ric_Cachart,Unknown,
Michael Burke,ceo,1957.0,France,47.925801,-1.900942,35,Ille-et-Vilaine,Bretagne,https://fr.wikipedia.org/wiki/Michael_Burke,Guignen,
Napoléon Bullukian,ceo,1905.0,Malatya,45.64834,0.968354,87,Haute-Vienne,Nouvelle-Aquitaine,https://fr.wikipedia.org/wiki/Napol%C3%A9on_Bullukian,Châlus,
Patrice Caine,ceo,1970.0,Paris 15,48.84162,2.295289,75,Paris,Île-de-France,https://fr.wikipedia.org/wiki/Patrice_Caine,Paris 15e Arrondissement,
Guillaume Cairou,ceo,1973.0,Meulan,49.00784,1.917929,78,Yvelines,Île-de-France,https://fr.wikipedia.org/wiki/Guillaume_Cairou,Meulan-en-Yvelines,
Pierre de Calan,ceo,1911.0,Paris 7,48.853954,2.312864,75,Paris,Île-de-France,https://fr.wikipedia.org/wiki/Pierre_de_Calan,Paris 7e Arrondissement,
Jacques Calvet,ceo,1931.0,Boulogne-Billancourt,48.837799,2.243202,92,Hauts-de-Seine,Île-de-France,https://fr.wikipedia.org/wiki/Jacques_Calvet,Boulogne-Billancourt,
Édouard Cadier,ceo,1881.0,Osse-en-Aspe,42.995852,-0.620249,64,Pyrénées-Atlantiques,Nouvelle-Aquitaine,https://fr.wikipedia.org/wiki/%C3%89douard_Cadier,Osse-en-Aspe,
Marie Cau,ceo,1965.0,Roubaix,50.688454,3.183662,59,Nord,Hauts-de-France,https://fr.wikipedia.org/wiki/Marie_Cau,Roubaix,
Roger Carour,ceo,1910.0,Lorient,47.750364,-3.378025,56,Morbihan,Bretagne,https://fr.wikipedia.org/wiki/Roger_Carour,Lorient,
Danièle Carteron,ceo,1984.0,Annecy,45.901584,6.125296,74,Haute-Savoie,Auvergne-Rhône-Alpes,https://fr.wikipedia.org/wiki/Dani%C3%A8le_Carteron,Annecy,
Bernard Capillon,ceo,1929.0,Bizerte,49.268286,4.05334,51,Marne,Grand Est,https://fr.wikipedia.org/wiki/Bernard_Capillon,Reims,
Aline Cerf,ceo,1984.0,Unknown,,,,,,https://fr.wikipedia.org/wiki/Aline_Cerf,Unknown,
Guillaume Cerise,ceo,1847.0,Paris,48.859,2.347,75,Paris,Île-de-France,https://fr.wikipedia.org/wiki/Guillaume_Cerise,Paris,
Bruno Cercley,ceo,1959.0,Moscou,43.657685,-0.577435,40,Landes,Nouvelle-Aquitaine,https://fr.wikipedia.org/wiki/Bruno_Cercley,Hagetmau,
Dominique Ceolin,ceo,1967.0,La Rochelle,47.984627,-1.65389,35,Ille-et-Vilaine,Bretagne,https://fr.wikipedia.org/wiki/Dominique_Ceolin,Orgères,
Nicolas Chabanne,ceo,1969.0,Moulins,46.559515,3.327763,03,Allier,Auvergne-Rhône-Alpes,https://fr.wikipedia.org/wiki/Nicolas_Chabanne,Moulins,
Guillaume Cerutti,ceo,1966.0,La Ciotat,43.189161,5.626161,13,Bouches-du-Rhône,Provence-Alpes-Côte d'Azur,https://fr.wikipedia.org/wiki/Guillaume_Cerutti,La Ciotat,
André Chardonnet,ceo,1923.0,Paris 15,48.84162,2.295289,75,Paris,Île-de-France,https://fr.wikipedia.org/wiki/Andr%C3%A9_Chardonnet,Paris 15e Arrondissement,
Valérie Chapoulaud-Floquet,ceo,1962.0,Neuilly-sur-Seine,48.886191,2.265869,92,Hauts-de-Seine,Île-de-France,https://fr.wikipedia.org/wiki/Val%C3%A9rie_Chapoulaud-Floquet,Neuilly-sur-Seine,
Bernard Charlès,ceo,1957.0,Unknown,,,,,,https://fr.wikipedia.org/wiki/Bernard_Charl%C3%A8s,Unknown,
Jean-Yves Charlier,ceo,1963.0,Belgique,47.760118,-3.3831,56,Morbihan,Bretagne,https://fr.wikipedia.org/wiki/Jean-Yves_Charlier,Lorient,
Pierre Chassigneux,ceo,1941.0,Neuilly-sur-Marne,48.864899,2.537373,93,Seine-Saint-Denis,Île-de-France,https://fr.wikipedia.org/wiki/Pierre_Chassigneux,Neuilly-sur-Marne,
Pierre Chaussade,ceo,1913.0,Bergerac (Dordogne),44.85304,0.482291,24,Dordogne,Nouvelle-Aquitaine,https://fr.wikipedia.org/wiki/Pierre_Chaussade,Bergerac,
Louis Charvet,ceo,1901.0,Chambéry,47.165242,-1.034458,49,Maine-et-Loire,Pays de la Loire,https://fr.wikipedia.org/wiki/Louis_Charvet,Beaupréau-en-Mauges,
Jean Chéreau,ceo,1919.0,Petit-Quevilly,49.431846,1.059492,76,Seine-Maritime,Normandie,https://fr.wikipedia.org/wiki/Jean_Ch%C3%A9reau,Le Petit-Quevilly,
Canelle Chokron,ceo,1999.0,Unknown,,,,,,https://fr.wikipedia.org/wiki/Canelle_Chokron,Unknown,
Frédéric Chesnais,ceo,,PDG d'Atari,,,,,,https://fr.wikipedia.org/wiki/Fr%C3%A9d%C3%A9ric_Chesnais,PDG d'Atari,
André Citroën,ceo,1878.0,Unknown,,,,,,https://fr.wikipedia.org/wiki/Andr%C3%A9_Citro%C3%ABn,Unknown,
Jean-Marc Chéry,ceo,1960.0,Orléans,47.873569,1.911358,45,Loiret,Centre-Val de Loire,https://fr.wikipedia.org/wiki/Jean-Marc_Ch%C3%A9ry,Orléans,
François-Xavier Clédat,ceo,1946.0,Unknown,,,,,,https://fr.wikipedia.org/wiki/Fran%C3%A7ois-Xavier_Cl%C3%A9dat,Unknown,
Mathilde Collin,ceo,1989.0,Unknown,,,,,,https://fr.wikipedia.org/wiki/Mathilde_Collin,Unknown,
Daniel Cohen (entrepreneur),ceo,1966.0,Casablanca,43.663279,-1.288498,40,Landes,Nouvelle-Aquitaine,https://fr.wikipedia.org/wiki/Daniel_Cohen_(entrepreneur),Saint-Vincent-de-Tyrosse,
Michel Combes (dirigeant),ceo,1962.0,Boulogne-Billancourt,48.837799,2.243202,92,Hauts-de-Seine,Île-de-France,https://fr.wikipedia.org/wiki/Michel_Combes_(dirigeant),Boulogne-Billancourt,
Jean-Charles Corbet,ceo,,Unknown,,,,,,https://fr.wikipedia.org/wiki/Jean-Charles_Corbet,Unknown,
Jean Clerfeuille,ceo,1909.0,Auxerre,47.791247,3.579905,89,Yonne,Bourgogne-Franche-Comté,https://fr.wikipedia.org/wiki/Jean_Clerfeuille,Auxerre,
Denis Cortella,ceo,1968.0,Unknown,,,,,,https://fr.wikipedia.org/wiki/Denis_Cortella,Unknown,
André Coisne,ceo,1961.0,Lille,50.630951,3.045391,59,Nord,Hauts-de-France,https://fr.wikipedia.org/wiki/Andr%C3%A9_Coisne,Lille,
Philippe Corrot,ceo,1976.0,Paris,48.859,2.347,75,Paris,Île-de-France,https://fr.wikipedia.org/wiki/Philippe_Corrot,Paris,
Yves Cordier,ceo,1964.0,Paris,48.859,2.347,75,Paris,Île-de-France,https://fr.wikipedia.org/wiki/Yves_Cordier,Paris,
Gabriella Cortese,ceo,1965.0,Turin,45.879242,4.25004,42,Loire,Auvergne-Rhône-Alpes,https://fr.wikipedia.org/wiki/Gabriella_Cortese,Saint-Just-la-Pendue,
Michel Cosson,ceo,1931.0,Mans,47.993378,0.191169,72,Sarthe,Pays de la Loire,https://fr.wikipedia.org/wiki/Michel_Cosson,Le Mans,
Pierre-Yves Cossé,ceo,1934.0,Nantes,47.239367,-1.555335,44,Loire-Atlantique,Pays de la Loire,https://fr.wikipedia.org/wiki/Pierre-Yves_Coss%C3%A9,Nantes,
Jean-Louis Costes (restaurateur),ceo,1950.0,Saint-Amans-des-Cots,44.68967,2.662177,12,Aveyron,Occitanie,https://fr.wikipedia.org/wiki/Jean-Louis_Costes_(restaurateur),Saint-Amans-des-Cots,
Bernard Couillaud,ceo,1944.0,Unknown,,,,,,https://fr.wikipedia.org/wiki/Bernard_Couillaud,Unknown,
François Coty,ceo,1874.0,Ajaccio,41.93368,8.715325,2A,Corse-du-Sud,Corse,https://fr.wikipedia.org/wiki/Fran%C3%A7ois_Coty,Ajaccio,
Denis Courtiade,ceo,1966.0,Suresnes,48.870985,2.218087,92,Hauts-de-Seine,Île-de-France,https://fr.wikipedia.org/wiki/Denis_Courtiade,Suresnes,
Pierre Couillard,ceo,1911.0,Nancy,48.688135,6.171263,54,Meurthe-et-Moselle,Grand Est,https://fr.wikipedia.org/wiki/Pierre_Couillard,Nancy,
Alphonse Couvreux,ceo,1820.0,Saran,47.946923,1.875773,45,Loiret,Centre-Val de Loire,https://fr.wikipedia.org/wiki/Alphonse_Couvreux,Saran,
Claude Czechowski,ceo,1952.0,Paris,48.859,2.347,75,Paris,Île-de-France,https://fr.wikipedia.org/wiki/Claude_Czechowski,Paris,
Teresa Cremisi,ceo,1945.0,Alexandrie,46.832106,-1.482419,85,Vendée,Pays de la Loire,https://fr.wikipedia.org/wiki/Teresa_Cremisi,Les Lucs-sur-Boulogne,
Pierre Danon,ceo,1956.0,Unknown,,,,,,https://fr.wikipedia.org/wiki/Pierre_Danon,Unknown,
Henry Cravoisier,ceo,1884.0,Melun,48.541332,2.655743,77,Seine-et-Marne,Île-de-France,https://fr.wikipedia.org/wiki/Henry_Cravoisier,Melun,
Francis Dagnan,ceo,1960.0,Auch,43.656961,0.57082,32,Gers,Occitanie,https://fr.wikipedia.org/wiki/Francis_Dagnan,Auch,
Marc Darmon,ceo,1964.0,Paris 16,48.856305,2.267032,75,Paris,Île-de-France,https://fr.wikipedia.org/wiki/Marc_Darmon,Paris 16e Arrondissement,
André Dang Van Nha,ceo,1936.0,Voh,-20.879,164.74,988,Nouvelle-Calédonie,,https://fr.wikipedia.org/wiki/Andr%C3%A9_Dang_Van_Nha,Voh,
Jacques Darmon,ceo,1940.0,Alger,48.334676,-0.546793,53,Mayenne,Pays de la Loire,https://fr.wikipedia.org/wiki/Jacques_Darmon,Aron,
Axel Dauchez,ceo,1968.0,Boulogne-Billancourt,48.837799,2.243202,92,Hauts-de-Seine,Île-de-France,https://fr.wikipedia.org/wiki/Axel_Dauchez,Boulogne-Billancourt,
Jérôme Darnaudet,ceo,1968.0,Pontoise,49.047592,2.099968,95,Val-d'Oise,Île-de-France,https://fr.wikipedia.org/wiki/J%C3%A9r%C3%B4me_Darnaudet,Pontoise,
Émile Decré,ceo,1897.0,Nantes,47.239367,-1.555335,44,Loire-Atlantique,Pays de la Loire,https://fr.wikipedia.org/wiki/%C3%89mile_Decr%C3%A9,Nantes,
Léon Debouverie,ceo,1889.0,Lannoy,50.232652,2.090666,62,Pas-de-Calais,Hauts-de-France,https://fr.wikipedia.org/wiki/L%C3%A9on_Debouverie,Auxi-le-Château,
André Defline,ceo,1876.0,Bruay-sur-l'Escaut et,50.398197,3.540327,59,Nord,Hauts-de-France,https://fr.wikipedia.org/wiki/Andr%C3%A9_Defline,Bruay-sur-l'Escaut,
André Decelle,ceo,1910.0,Meurthe-et-Moselle,49.204714,5.930193,54,Meurthe-et-Moselle,Grand Est,https://fr.wikipedia.org/wiki/Andr%C3%A9_Decelle,Valleroy,
Albert Dehen,ceo,1901.0,Lille,50.630951,3.045391,59,Nord,Hauts-de-France,https://fr.wikipedia.org/wiki/Albert_Dehen,Lille,
Pierre Delaporte,ceo,1928.0,Paris 13,48.830193,2.365001,75,Paris,Île-de-France,https://fr.wikipedia.org/wiki/Pierre_Delaporte,Paris 13e Arrondissement,
Guy Delcourt (éditeur),ceo,1958.0,Versailles,48.803019,2.131319,78,Yvelines,Île-de-France,https://fr.wikipedia.org/wiki/Guy_Delcourt_(%C3%A9diteur),Versailles,
Jean-Marc Demoly,ceo,1969.0,Unknown,,,,,,https://fr.wikipedia.org/wiki/Jean-Marc_Demoly,Unknown,
Dominique Delport,ceo,1967.0,Toulouse,43.604082,1.433805,31,Haute-Garonne,Occitanie,https://fr.wikipedia.org/wiki/Dominique_Delport,Toulouse,
Jean-Laurens Delpech,ceo,1913.0,Saint-Céré et mort le,,,,,,https://fr.wikipedia.org/wiki/Jean-Laurens_Delpech,Saint-Céré et mort le,
Marcel Demonque,ceo,1900.0,Alger,48.334676,-0.546793,53,Mayenne,Pays de la Loire,https://fr.wikipedia.org/wiki/Marcel_Demonque,Aron,
Yves Delorme,ceo,1922.0,Roanne,46.043412,4.072015,42,Loire,Auvergne-Rhône-Alpes,https://fr.wikipedia.org/wiki/Yves_Delorme,Roanne,
Henri Desjoyeaux,ceo,1919.0,Paris 16,48.856305,2.267032,75,Paris,Île-de-France,https://fr.wikipedia.org/wiki/Henri_Desjoyeaux,Paris 16e Arrondissement,
Thierry Desmarest,ceo,1945.0,Paris 12,48.833494,2.415411,75,Paris,Île-de-France,https://fr.wikipedia.org/wiki/Thierry_Desmarest,Paris 12e Arrondissement,
Alain Dinin,ceo,1951.0,Boulogne-Billancourt,48.837799,2.243202,92,Hauts-de-Seine,Île-de-France,https://fr.wikipedia.org/wiki/Alain_Dinin,Boulogne-Billancourt,
Gilbert Devaux,ceo,1906.0,Neuilly-sur-Seine,48.886191,2.265869,92,Hauts-de-Seine,Île-de-France,https://fr.wikipedia.org/wiki/Gilbert_Devaux,Neuilly-sur-Seine,
Jean Doise,ceo,1917.0,Marseille,43.282,5.405,13,Bouches-du-Rhône,Provence-Alpes-Côte d'Azur,https://fr.wikipedia.org/wiki/Jean_Doise,Marseille,
Patrick Diter,ceo,1957.0,Montreuil (Seine-Saint-Denis),48.872323,2.455188,93,Seine-Saint-Denis,Île-de-France,https://fr.wikipedia.org/wiki/Patrick_Diter,Montreuil,
Pierre Donnersberg,ceo,1947.0,Oran,44.131436,4.812545,84,Vaucluse,Provence-Alpes-Côte d'Azur,https://fr.wikipedia.org/wiki/Pierre_Donnersberg,Orange,
Guy Dollé,ceo,1942.0,Roye-sur-Matz,49.592953,2.768526,60,Oise,Hauts-de-France,https://fr.wikipedia.org/wiki/Guy_Doll%C3%A9,Roye-sur-Matz,
Philippe Donnet (chef d'entreprise),ceo,1960.0,Suresnes,48.870985,2.218087,92,Hauts-de-Seine,Île-de-France,https://fr.wikipedia.org/wiki/Philippe_Donnet_(chef_d%27entreprise),Suresnes,
Pierre Dreyfus,ceo,1907.0,Unknown,,,,,,https://fr.wikipedia.org/wiki/Pierre_Dreyfus,Unknown,
Jean-Matthieu Douladoure,ceo,1765.0,Toulouse,43.604082,1.433805,31,Haute-Garonne,Occitanie,https://fr.wikipedia.org/wiki/Jean-Matthieu_Douladoure,Toulouse,
Jean-Michel Dubois,ceo,1943.0,Seine-et-Oise,49.003436,2.080953,78,Yvelines,Île-de-France,https://fr.wikipedia.org/wiki/Jean-Michel_Dubois,Conflans-Sainte-Honorine,
Antoine Duboscq,ceo,1968.0,Rouen,49.349295,0.811661,27,Eure,Normandie,https://fr.wikipedia.org/wiki/Antoine_Duboscq,Bourg-Achard,
Jean Duforest,ceo,1946.0,Roubaix,50.688454,3.183662,59,Nord,Hauts-de-France,https://fr.wikipedia.org/wiki/Jean_Duforest,Roubaix,
Olivier Duha,ceo,1969.0,Dax,43.700723,-1.06016,40,Landes,Nouvelle-Aquitaine,https://fr.wikipedia.org/wiki/Olivier_Duha,Dax,
Désiré Ducarin,ceo,1859.0,Comines,50.749717,3.015462,59,Nord,Hauts-de-France,https://fr.wikipedia.org/wiki/D%C3%A9sir%C3%A9_Ducarin,Comines,
Jean-Louis Dumas,ceo,1938.0,Paris 12,48.833494,2.415411,75,Paris,Île-de-France,https://fr.wikipedia.org/wiki/Jean-Louis_Dumas,Paris 12e Arrondissement,
Sidonie Dumas,ceo,1967.0,Boulogne-Billancourt,48.837799,2.243202,92,Hauts-de-Seine,Île-de-France,https://fr.wikipedia.org/wiki/Sidonie_Dumas,Boulogne-Billancourt,
Utilisateur:WebSemantique/Brouillon,ceo,1983.0,Unknown,,,,,,https://fr.wikipedia.org/wiki/Utilisateur:WebSemantique/Brouillon,Unknown,
Paul du Saillant,ceo,1959.0,Unknown,,,,,,https://fr.wikipedia.org/wiki/Paul_du_Saillant,Unknown,
Denis Dumont,ceo,1958.0,Lorgies dans le Pas-d,50.567712,2.784489,62,Pas-de-Calais,Hauts-de-France,https://fr.wikipedia.org/wiki/Denis_Dumont,Lorgies,
Jean Dupuis (industriel),ceo,1886.0,Saint-Mandé,48.841526,2.419441,94,Val-de-Marne,Île-de-France,https://fr.wikipedia.org/wiki/Jean_Dupuis_(industriel),Saint-Mandé,
Bertrand Dumazy,ceo,1971.0,Tourcoing,50.720797,3.157799,59,Nord,Hauts-de-France,https://fr.wikipedia.org/wiki/Bertrand_Dumazy,Tourcoing,
Thierry Ehrmann,ceo,1962.0,Avignon,48.390692,-1.759389,35,Ille-et-Vilaine,Bretagne,https://fr.wikipedia.org/wiki/Thierry_Ehrmann,Combourg,
Louis Escallier,ceo,1883.0,Malesherbes dans le L,50.624159,3.092048,59,Nord,Hauts-de-France,https://fr.wikipedia.org/wiki/Louis_Escallier,Lille,
Thibaud Elzière,ceo,1979.0,Aix-en-Provence,43.541369,5.406124,13,Bouches-du-Rhône,Provence-Alpes-Côte d'Azur,https://fr.wikipedia.org/wiki/Thibaud_Elzi%C3%A8re,Aix-en-Provence,
Philippe Essig,ceo,1933.0,Paris 8,48.873998,2.31129,75,Paris,Île-de-France,https://fr.wikipedia.org/wiki/Philippe_Essig,Paris,
Georges Estienne,ceo,1896.0,Nice,43.71273,7.25092,06,Alpes-Maritimes,Provence-Alpes-Côte d'Azur,https://fr.wikipedia.org/wiki/Georges_Estienne,Nice,
Mason Ewing,ceo,1982.0,Douala,48.143227,-1.813778,35,Ille-et-Vilaine,Bretagne,https://fr.wikipedia.org/wiki/Mason_Ewing,Pacé,
Daniel Eymery,ceo,1938.0,Gap et mort le 4 août,46.3192,-0.471067,79,Deux-Sèvres,Nouvelle-Aquitaine,https://fr.wikipedia.org/wiki/Daniel_Eymery,Niort,
Agnès Evren,ceo,1970.0,décembre,-20.900174,55.548239,974,La Réunion,,https://fr.wikipedia.org/wiki/Agn%C3%A8s_Evren,Sainte-Marie,
Christian Fenioux,ceo,1953.0,Unknown,,,,,,https://fr.wikipedia.org/wiki/Christian_Fenioux,Unknown,
Jacques-Henri Eyraud,ceo,1968.0,Paris,48.859,2.347,75,Paris,Île-de-France,https://fr.wikipedia.org/wiki/Jacques-Henri_Eyraud,Paris,
Catégorie:Dirigeant français d'entreprise de jeux vidéo,ceo,,Unknown,,,,,,https://fr.wikipedia.org/wiki/Cat%C3%A9gorie:Dirigeant_fran%C3%A7ais_d%27entreprise_de_jeux_vid%C3%A9o,Unknown,
Christophe Fanichet,ceo,1967.0,Perreux-sur-Marne,48.842833,2.50403,94,Val-de-Marne,Île-de-France,https://fr.wikipedia.org/wiki/Christophe_Fanichet,Le Perreux-sur-Marne,
Catégorie:Dirigeante française d'entreprise de jeux vidéo,ceo,,Unknown,,,,,,https://fr.wikipedia.org/wiki/Cat%C3%A9gorie:Dirigeante_fran%C3%A7aise_d%27entreprise_de_jeux_vid%C3%A9o,Unknown,
Clément Faugier,ceo,1861.0,Privas,44.726042,4.594919,07,Ardèche,Auvergne-Rhône-Alpes,https://fr.wikipedia.org/wiki/Cl%C3%A9ment_Faugier,Privas,
Noël Fenwick,ceo,1820.0,Windsor (Royaume-Uni),44.795456,-0.708258,33,Gironde,Nouvelle-Aquitaine,https://fr.wikipedia.org/wiki/No%C3%ABl_Fenwick,Pessac,
Catégorie:Chef d'entreprise en Nouvelle-Calédonie,ceo,,Unknown,,,,,,https://fr.wikipedia.org/wiki/Cat%C3%A9gorie:Chef_d%27entreprise_en_Nouvelle-Cal%C3%A9donie,Unknown,
Marc Fiorentino,ceo,1959.0,Paris,48.859,2.347,75,Paris,Île-de-France,https://fr.wikipedia.org/wiki/Marc_Fiorentino,Paris,
Racem Flazi,ceo,1989.0,Oran,44.131436,4.812545,84,Vaucluse,Provence-Alpes-Côte d'Azur,https://fr.wikipedia.org/wiki/Racem_Flazi,Orange,
Jean-Martin Folz,ceo,1947.0,Strasbourg,48.579831,7.761454,67,Bas-Rhin,Grand Est,https://fr.wikipedia.org/wiki/Jean-Martin_Folz,Strasbourg,
Jean Forgeot,ceo,1915.0,Paris 18,48.896214,2.362997,75,Paris,Île-de-France,https://fr.wikipedia.org/wiki/Jean_Forgeot,Paris,
Xavier Fontanet,ceo,1948.0,Malestroit,47.8078,-2.38677,56,Morbihan,Bretagne,https://fr.wikipedia.org/wiki/Xavier_Fontanet,Malestroit,
Stéphane Fouks,ceo,1960.0,Paris,48.859,2.347,75,Paris,Île-de-France,https://fr.wikipedia.org/wiki/St%C3%A9phane_Fouks,Paris,
Jean-François Fortin (chef d'entreprise),ceo,1947.0,Coulonges-sur-l'Autiz,46.479024,-0.603051,79,Deux-Sèvres,Nouvelle-Aquitaine,https://fr.wikipedia.org/wiki/Jean-Fran%C3%A7ois_Fortin_(chef_d%27entreprise),Coulonges-sur-l'Autize,
Maurice Forget,ceo,1944.0,Ambrières-les-Vallées,48.426329,-0.619444,53,Mayenne,Pays de la Loire,https://fr.wikipedia.org/wiki/Maurice_Forget,Ambrières-les-Vallées,
Béatrice Foucher,ceo,1964.0,Saintes,45.748804,-0.647217,17,Charente-Maritime,Nouvelle-Aquitaine,https://fr.wikipedia.org/wiki/B%C3%A9atrice_Foucher,Saintes,
Jean-François Fountaine,ceo,1951.0,Paris,48.859,2.347,75,Paris,Île-de-France,https://fr.wikipedia.org/wiki/Jean-Fran%C3%A7ois_Fountaine,Paris,
Claude Foussier,ceo,1925.0,Paris 16,48.856305,2.267032,75,Paris,Île-de-France,https://fr.wikipedia.org/wiki/Claude_Foussier,Paris 16e Arrondissement,
Jean Fraissinet,ceo,1894.0,Marseille,43.282,5.405,13,Bouches-du-Rhône,Provence-Alpes-Côte d'Azur,https://fr.wikipedia.org/wiki/Jean_Fraissinet,Marseille,
Clémence Franc,ceo,1990.0,Paris,48.859,2.347,75,Paris,Île-de-France,https://fr.wikipedia.org/wiki/Cl%C3%A9mence_Franc,Paris,
Olivier François,ceo,1961.0,Paris,48.859,2.347,75,Paris,Île-de-France,https://fr.wikipedia.org/wiki/Olivier_Fran%C3%A7ois,Paris,
Maryse François-Xausa,ceo,1959.0,Briançon,44.896187,6.637231,05,Hautes-Alpes,Provence-Alpes-Côte d'Azur,https://fr.wikipedia.org/wiki/Maryse_Fran%C3%A7ois-Xausa,Briançon,
Jean-Dominique Fratoni,ceo,1923.0,Corse (département),41.708523,9.158245,2A,Corse-du-Sud,Corse,https://fr.wikipedia.org/wiki/Jean-Dominique_Fratoni,San-Gavino-di-Carbini,
Laurent Freixe,ceo,1962.0,Paris,48.859,2.347,75,Paris,Île-de-France,https://fr.wikipedia.org/wiki/Laurent_Freixe,Paris,
Adrien Galet,ceo,1944.0,Châtillon-sur-Chalaro,46.128374,4.95847,01,Ain,Auvergne-Rhône-Alpes,https://fr.wikipedia.org/wiki/Adrien_Galet,Châtillon-sur-Chalaronne,
Pierre-Antoine Gailly,ceo,1955.0,Charleville,47.712416,1.331499,41,Loir-et-Cher,Centre-Val de Loire,https://fr.wikipedia.org/wiki/Pierre-Antoine_Gailly,Maves,
Jean-Loïc Galle,ceo,1959.0,Fougères,47.950339,-3.881992,29,Finistère,Bretagne,https://fr.wikipedia.org/wiki/Jean-Lo%C3%AFc_Galle,Rosporden,
Mathieu Gallet,ceo,1977.0,Villeneuve-sur-Lot,44.416152,0.747052,47,Lot-et-Garonne,Nouvelle-Aquitaine,https://fr.wikipedia.org/wiki/Mathieu_Gallet,Villeneuve-sur-Lot,
Antoine Gallimard,ceo,1947.0,Paris,48.859,2.347,75,Paris,Île-de-France,https://fr.wikipedia.org/wiki/Antoine_Gallimard,Paris,
Isabelle Gallimard,ceo,1951.0,Paris,48.859,2.347,75,Paris,Île-de-France,https://fr.wikipedia.org/wiki/Isabelle_Gallimard,Paris,
Jean Gaudfernau,ceo,1928.0,Casablanca,43.663279,-1.288498,40,Landes,Nouvelle-Aquitaine,https://fr.wikipedia.org/wiki/Jean_Gaudfernau,Saint-Vincent-de-Tyrosse,
Pascal Gauthier,ceo,1976.0,Unknown,,,,,,https://fr.wikipedia.org/wiki/Pascal_Gauthier,Unknown,
Pierre Gattaz,ceo,1959.0,Boulogne-Billancourt,48.837799,2.243202,92,Hauts-de-Seine,Île-de-France,https://fr.wikipedia.org/wiki/Pierre_Gattaz,Boulogne-Billancourt,
Maëlle Gavet,ceo,1978.0,Boulogne-Billancourt,48.837799,2.243202,92,Hauts-de-Seine,Île-de-France,https://fr.wikipedia.org/wiki/Ma%C3%ABlle_Gavet,Boulogne-Billancourt,
Jean-Marc Germain (chef d'entreprise),ceo,1966.0,PDG du fabricant mond,50.690271,3.171062,59,Nord,Hauts-de-France,https://fr.wikipedia.org/wiki/Jean-Marc_Germain_(chef_d%27entreprise),Roubaix,
François Gautier (industriel),ceo,1906.0,Sète,43.40682,3.687298,34,Hérault,Occitanie,https://fr.wikipedia.org/wiki/Fran%C3%A7ois_Gautier_(industriel),Sète,
Gervaise (Louis Gervais),ceo,1883.0,Nice,43.71273,7.25092,06,Alpes-Maritimes,Provence-Alpes-Côte d'Azur,https://fr.wikipedia.org/wiki/Gervaise_(Louis_Gervais),Nice,
Renaud Gillet,ceo,1913.0,Lyon et mort le 16 oc,,,,,,https://fr.wikipedia.org/wiki/Renaud_Gillet,Lyon et mort le 16 oc,
Oscar Ghez,ceo,1905.0,Sousse,49.266923,4.052814,51,Marne,Grand Est,https://fr.wikipedia.org/wiki/Oscar_Ghez,Reims,
Jean-Louis Girodolle,ceo,1968.0,Limoges,45.856159,1.221254,87,Haute-Vienne,Nouvelle-Aquitaine,https://fr.wikipedia.org/wiki/Jean-Louis_Girodolle,Limoges,
Elie Girard,ceo,1978.0,Arles,43.596721,4.645086,13,Bouches-du-Rhône,Provence-Alpes-Côte d'Azur,https://fr.wikipedia.org/wiki/Elie_Girard,Arles,
Guillaume Giscard d'Estaing,ceo,1958.0,Unknown,,,,,,https://fr.wikipedia.org/wiki/Guillaume_Giscard_d%27Estaing,Unknown,
Carlos Ghosn,ceo,1954.0,Rondônia,47.639148,-1.354885,44,Loire-Atlantique,Pays de la Loire,https://fr.wikipedia.org/wiki/Carlos_Ghosn,Moisdon-la-Rivière,
Xavier Girre,ceo,1969.0,Rennes,48.110899,-1.68365,35,Ille-et-Vilaine,Bretagne,https://fr.wikipedia.org/wiki/Xavier_Girre,Rennes,
Paul Glotin (1933-2011),ceo,1933.0,Bordeaux,44.851897,-0.587877,33,Gironde,Nouvelle-Aquitaine,https://fr.wikipedia.org/wiki/Paul_Glotin_(1933-2011),Bordeaux,
Charles Gomel,ceo,1843.0,Unknown,,,,,,https://fr.wikipedia.org/wiki/Charles_Gomel,Unknown,
Léon Givaudan,ceo,1875.0,Caluire-et-Cuire,45.797623,4.848745,69,Rhône,Auvergne-Rhône-Alpes,https://fr.wikipedia.org/wiki/L%C3%A9on_Givaudan,Caluire-et-Cuire,
Philippe Glotin,ceo,1938.0,Bordeaux,44.851897,-0.587877,33,Gironde,Nouvelle-Aquitaine,https://fr.wikipedia.org/wiki/Philippe_Glotin,Bordeaux,
Alex Goude,ceo,1975.0,Neuilly-sur-Seine,48.886191,2.265869,92,Hauts-de-Seine,Île-de-France,https://fr.wikipedia.org/wiki/Alex_Goude,Neuilly-sur-Seine,
Caroline Got,ceo,1964.0,Unknown,,,,,,https://fr.wikipedia.org/wiki/Caroline_Got,Unknown,
Arnaud Gobet,ceo,1952.0,Paris,48.859,2.347,75,Paris,Île-de-France,https://fr.wikipedia.org/wiki/Arnaud_Gobet,Paris,
Azmina Goulamaly,ceo,1972.0,Tananarive,47.549117,2.160347,41,Loir-et-Cher,Centre-Val de Loire,https://fr.wikipedia.org/wiki/Azmina_Goulamaly,Pierrefitte-sur-Sauldre,
Gilles Grapinet,ceo,1963.0,Aix-en-Provence,43.541369,5.406124,13,Bouches-du-Rhône,Provence-Alpes-Côte d'Azur,https://fr.wikipedia.org/wiki/Gilles_Grapinet,Aix-en-Provence,
Maïlys Grau,ceo,1983.0,Nantes,47.239367,-1.555335,44,Loire-Atlantique,Pays de la Loire,https://fr.wikipedia.org/wiki/Ma%C3%AFlys_Grau,Nantes,
Joël Grynbaum,ceo,,Unknown,,,,,,https://fr.wikipedia.org/wiki/Jo%C3%ABl_Grynbaum,Unknown,
Olivier Goy,ceo,1974.0,Annemasse,46.189327,6.243054,74,Haute-Savoie,Auvergne-Rhône-Alpes,https://fr.wikipedia.org/wiki/Olivier_Goy,Annemasse,
Jean-Marie de Grimaldi,ceo,1796.0,Avignon,48.390692,-1.759389,35,Ille-et-Vilaine,Bretagne,https://fr.wikipedia.org/wiki/Jean-Marie_de_Grimaldi,Combourg,
Jacques-Henry Gros,ceo,1911.0,Gassin,43.416613,5.512099,13,Bouches-du-Rhône,Provence-Alpes-Côte d'Azur,https://fr.wikipedia.org/wiki/Jacques-Henry_Gros,Mimet,
Stanislas Guerini,ceo,1982.0,Paris,48.859,2.347,75,Paris,Île-de-France,https://fr.wikipedia.org/wiki/Stanislas_Guerini,Paris,
Antoine Guichard,ceo,1926.0,Saint-Étienne,45.430195,4.370045,42,Loire,Auvergne-Rhône-Alpes,https://fr.wikipedia.org/wiki/Antoine_Guichard,Saint-Étienne,
Jean René Guerrand,ceo,1905.0,Rolleville,49.578969,0.214553,76,Seine-Maritime,Normandie,https://fr.wikipedia.org/wiki/Jean_Ren%C3%A9_Guerrand,Rolleville,
David Gurlé,ceo,1966.0,Istanbul en 1966,48.575866,7.769666,67,Bas-Rhin,Grand Est,https://fr.wikipedia.org/wiki/David_Gurl%C3%A9,Strasbourg,
Catherine Guillouard,ceo,1965.0,Cannes,43.555468,7.004585,06,Alpes-Maritimes,Provence-Alpes-Côte d'Azur,https://fr.wikipedia.org/wiki/Catherine_Guillouard,Cannes,
Jean-Yves Haby,ceo,1955.0,Dombasle-sur-Meurthe,48.618581,6.357492,54,Meurthe-et-Moselle,Grand Est,https://fr.wikipedia.org/wiki/Jean-Yves_Haby,Dombasle-sur-Meurthe,
Viviane Hamy,ceo,1953.0,Alexandrie,46.832106,-1.482419,85,Vendée,Pays de la Loire,https://fr.wikipedia.org/wiki/Viviane_Hamy,Les Lucs-sur-Boulogne,
Bernard Hanon,ceo,1932.0,Bois-Colombes,48.915331,2.268837,92,Hauts-de-Seine,Île-de-France,https://fr.wikipedia.org/wiki/Bernard_Hanon,Bois-Colombes,
François Harouard de Suarez d'Aulan,ceo,1931.0,Rabat le 26 novembre,46.165923,3.689526,03,Allier,Auvergne-Rhône-Alpes,https://fr.wikipedia.org/wiki/Fran%C3%A7ois_Harouard_de_Suarez_d%27Aulan,Le Breuil,
Kilian Hennessy (1907),ceo,1907.0,Paris 8,48.873998,2.31129,75,Paris,Île-de-France,https://fr.wikipedia.org/wiki/Kilian_Hennessy_(1907),Paris,
Morgan Hermand-Waiche,ceo,1982.0,Marseille,43.282,5.405,13,Bouches-du-Rhône,Provence-Alpes-Côte d'Azur,https://fr.wikipedia.org/wiki/Morgan_Hermand-Waiche,Marseille,
Bernard Guirkinger,ceo,1952.0,Moselle,,,,,,https://fr.wikipedia.org/wiki/Bernard_Guirkinger,Moselle,
Henry Hermand,ceo,1924.0,Clermont (Oise),49.37814,2.413758,60,Oise,Hauts-de-France,https://fr.wikipedia.org/wiki/Henry_Hermand,Clermont,
Valérie Hermann,ceo,1963.0,Concarneau,47.891735,-3.896018,29,Finistère,Bretagne,https://fr.wikipedia.org/wiki/Val%C3%A9rie_Hermann,Concarneau,
Charles-Émile Hermès,ceo,1831.0,Pont-Audemer,49.348034,0.526847,27,Eure,Normandie,https://fr.wikipedia.org/wiki/Charles-%C3%89mile_Herm%C3%A8s,Pont-Audemer,
Émile-Maurice Hermès,ceo,1871.0,Paris 9,48.87727,2.33371,75,Paris,Île-de-France,https://fr.wikipedia.org/wiki/%C3%89mile-Maurice_Herm%C3%A8s,Paris,
Georges Hersent,ceo,1865.0,Azay-le-Ferron,46.844945,1.090596,36,Indre,Centre-Val de Loire,https://fr.wikipedia.org/wiki/Georges_Hersent,Azay-le-Ferron,
Thierry Hermès,ceo,1801.0,Krefeld,,,,,,https://fr.wikipedia.org/wiki/Thierry_Herm%C3%A8s,Krefeld,
Jean-Claude Houdinière,ceo,1938.0,Unknown,,,,,,https://fr.wikipedia.org/wiki/Jean-Claude_Houdini%C3%A8re,Unknown,
Robert Hirsch (haut fonctionnaire),ceo,1912.0,Paris 17,48.887702,2.304844,75,Paris,Île-de-France,https://fr.wikipedia.org/wiki/Robert_Hirsch_(haut_fonctionnaire),Paris 17e Arrondissement,
Hippolyte Hostein (fils),ceo,1846.0,Paris 5,48.845277,2.350554,75,Paris,Île-de-France,https://fr.wikipedia.org/wiki/Hippolyte_Hostein_(fils),Paris 5e Arrondissement,
Christel Heydemann,ceo,1974.0,Clamart,47.574611,-2.357272,56,Morbihan,Bretagne,https://fr.wikipedia.org/wiki/Christel_Heydemann,Péaule,
Antoine Hubert (entrepreneur),ceo,1982.0,Unknown,,,,,,https://fr.wikipedia.org/wiki/Antoine_Hubert_(entrepreneur),Unknown,
Xavier Huillard,ceo,1954.0,Unknown,,,,,,https://fr.wikipedia.org/wiki/Xavier_Huillard,Unknown,
Philippe Houzé,ceo,1947.0,Boulogne-Billancourt,48.837799,2.243202,92,Hauts-de-Seine,Île-de-France,https://fr.wikipedia.org/wiki/Philippe_Houz%C3%A9,Boulogne-Billancourt,
Bernard Hours (homme d'affaires),ceo,1956.0,Strasbourg,48.579831,7.761454,67,Bas-Rhin,Grand Est,https://fr.wikipedia.org/wiki/Bernard_Hours_(homme_d%27affaires),Strasbourg,
Justine Hutteau,ceo,1994.0,Sucy-en-Brie,48.77067,2.528396,94,Val-de-Marne,Île-de-France,https://fr.wikipedia.org/wiki/Justine_Hutteau,Sucy-en-Brie,
Hervé Icovic,ceo,1953.0,Nancy,48.688135,6.171263,54,Meurthe-et-Moselle,Grand Est,https://fr.wikipedia.org/wiki/Herv%C3%A9_Icovic,Nancy,
Jacques Igalens,ceo,1950.0,Montauban,16.210225,-61.499535,971,Guadeloupe,,https://fr.wikipedia.org/wiki/Jacques_Igalens,Le Gosier,
François Jaclot,ceo,1949.0,Neuilly-sur-Seine,48.886191,2.265869,92,Hauts-de-Seine,Île-de-France,https://fr.wikipedia.org/wiki/Fran%C3%A7ois_Jaclot,Neuilly-sur-Seine,
Amyne Ismail,ceo,1965.0,Madagascar,47.905303,2.242768,45,Loiret,Centre-Val de Loire,https://fr.wikipedia.org/wiki/Amyne_Ismail,Châteauneuf-sur-Loire,
Soraya Jaber,ceo,1995.0,Bondy,48.903653,2.48526,93,Seine-Saint-Denis,Île-de-France,https://fr.wikipedia.org/wiki/Soraya_Jaber,Bondy,
Yvon Jacob,ceo,1942.0,Neuilly-sur-Seine,48.886191,2.265869,92,Hauts-de-Seine,Île-de-France,https://fr.wikipedia.org/wiki/Yvon_Jacob,Neuilly-sur-Seine,
Jean-Philippe Imparato,ceo,1966.0,Sète,,,,,,https://fr.wikipedia.org/wiki/Jean-Philippe_Imparato,Sète,
Jean-Sébastien Jacques,ceo,1971.0,Unknown,,,,,,https://fr.wikipedia.org/wiki/Jean-S%C3%A9bastien_Jacques,Unknown,
Gaston Japy,ceo,1854.0,Dampierre-les-Bois,47.507565,6.91772,25,Doubs,Bourgogne-Franche-Comté,https://fr.wikipedia.org/wiki/Gaston_Japy,Dampierre-les-Bois,
Philippe Jaffré,ceo,1945.0,Charenton-le-Pont,48.823948,2.407129,94,Val-de-Marne,Île-de-France,https://fr.wikipedia.org/wiki/Philippe_Jaffr%C3%A9,Charenton-le-Pont,
Jean-Marc Janaillac,ceo,1953.0,Dordogne,43.629253,1.454635,31,Haute-Garonne,Occitanie,https://fr.wikipedia.org/wiki/Jean-Marc_Janaillac,Toulouse,
Édouard Jaunez (1834-1918),ceo,1834.0,Metz,49.108385,6.194891,57,Moselle,Grand Est,https://fr.wikipedia.org/wiki/%C3%89douard_Jaunez_(1834-1918),Metz,
Thierry Jadot,ceo,1963.0,Clacy-et-Thierret,,,,,,https://fr.wikipedia.org/wiki/Thierry_Jadot,Clacy-et-Thierret,
Jean-Paul Jauffret,ceo,1930.0,Bordeaux,44.851897,-0.587877,33,Gironde,Nouvelle-Aquitaine,https://fr.wikipedia.org/wiki/Jean-Paul_Jauffret,Bordeaux,
Thierry Jeantet,ceo,1948.0,Unknown,,,,,,https://fr.wikipedia.org/wiki/Thierry_Jeantet,Unknown,
Aurélie Jean,ceo,1982.0,Clamart,47.574611,-2.357272,56,Morbihan,Bretagne,https://fr.wikipedia.org/wiki/Aur%C3%A9lie_Jean,Péaule,
Jean-François Feuillette,ceo,,Meurthe-et-Moselle,,,,,,https://fr.wikipedia.org/wiki/Jean-Fran%C3%A7ois_Feuillette,Meurthe-et-Moselle,
Pascal Jenft,ceo,1966.0,Sarreguemines,49.110922,7.07705,57,Moselle,Grand Est,https://fr.wikipedia.org/wiki/Pascal_Jenft,Sarreguemines,
Hubert Joly,ceo,1959.0,Laxou,48.688106,6.141298,54,Meurthe-et-Moselle,Grand Est,https://fr.wikipedia.org/wiki/Hubert_Joly,Laxou,
Maurice Jordan,ceo,1899.0,Orléans,47.873569,1.911358,45,Loiret,Centre-Val de Loire,https://fr.wikipedia.org/wiki/Maurice_Jordan,Orléans,
Armand Josse,ceo,1906.0,août,43.093241,-0.02298,65,Hautes-Pyrénées,Occitanie,https://fr.wikipedia.org/wiki/Armand_Josse,Lourdes,
Frédéric Jousset,ceo,1970.0,Unknown,,,,,,https://fr.wikipedia.org/wiki/Fr%C3%A9d%C3%A9ric_Jousset,Unknown,
Antoine Jouteau,ceo,1975.0,Cholet,47.036408,-0.875399,49,Maine-et-Loire,Pays de la Loire,https://fr.wikipedia.org/wiki/Antoine_Jouteau,Cholet,
Philippe Journo,ceo,1961.0,Tunis,44.05238,0.276355,47,Lot-et-Garonne,Nouvelle-Aquitaine,https://fr.wikipedia.org/wiki/Philippe_Journo,Mézin,
Georges Juillard-Hartmann,ceo,1845.0,Strasbourg,48.579831,7.761454,67,Bas-Rhin,Grand Est,https://fr.wikipedia.org/wiki/Georges_Juillard-Hartmann,Strasbourg,
Daniel Julien,ceo,1952.0,Paris 10,48.88143,2.366774,75,Paris,Île-de-France,https://fr.wikipedia.org/wiki/Daniel_Julien,Paris,
Alexandre de Juniac,ceo,1962.0,Neuilly-sur-Seine,48.886191,2.265869,92,Hauts-de-Seine,Île-de-France,https://fr.wikipedia.org/wiki/Alexandre_de_Juniac,Neuilly-sur-Seine,
Daniel Keller,ceo,1959.0,Unknown,,,,,,https://fr.wikipedia.org/wiki/Daniel_Keller,Unknown,
Alain Juillet,ceo,1942.0,Vichy,46.131168,3.428025,03,Allier,Auvergne-Rhône-Alpes,https://fr.wikipedia.org/wiki/Alain_Juillet,Vichy,
Maurice de Kervenoaël,ceo,1936.0,Versailles,48.803019,2.131319,78,Yvelines,Île-de-France,https://fr.wikipedia.org/wiki/Maurice_de_Kervenoa%C3%ABl,Versailles,
Louis Antoine Kriéger,ceo,1868.0,Unknown,,,,,,https://fr.wikipedia.org/wiki/Louis_Antoine_Kri%C3%A9ger,Unknown,
Olivier Klein (dirigeant),ceo,1957.0,Paris,48.859,2.347,75,Paris,Île-de-France,https://fr.wikipedia.org/wiki/Olivier_Klein_(dirigeant),Paris,
Bernard Kuhn de Chizelle,ceo,1897.0,Tunis,44.05238,0.276355,47,Lot-et-Garonne,Nouvelle-Aquitaine,https://fr.wikipedia.org/wiki/Bernard_Kuhn_de_Chizelle,Mézin,
Éric Labaye,ceo,1961.0,Argenton-sur-Creuse,46.580769,1.496044,36,Indre,Centre-Val de Loire,https://fr.wikipedia.org/wiki/%C3%89ric_Labaye,Argenton-sur-Creuse,
Henri Lachmann,ceo,1938.0,Colmar,48.081779,7.352569,68,Haut-Rhin,Grand Est,https://fr.wikipedia.org/wiki/Henri_Lachmann,Colmar,
Thierry de La Brosse,ceo,1955.0,Neuilly-sur-Seine,48.886191,2.265869,92,Hauts-de-Seine,Île-de-France,https://fr.wikipedia.org/wiki/Thierry_de_La_Brosse,Neuilly-sur-Seine,
Jacques et Jean Lacroix,ceo,1898.0,Gagny,48.881906,2.545651,93,Seine-Saint-Denis,Île-de-France,https://fr.wikipedia.org/wiki/Jacques_et_Jean_Lacroix,Gagny,
Georges Laederich,ceo,1898.0,Épinal,48.170226,6.484892,88,Vosges,Grand Est,https://fr.wikipedia.org/wiki/Georges_Laederich,Épinal,
Jean-Bernard Lafonta,ceo,1961.0,Neuilly-sur-Seine,48.886191,2.265869,92,Hauts-de-Seine,Île-de-France,https://fr.wikipedia.org/wiki/Jean-Bernard_Lafonta,Neuilly-sur-Seine,
Daniel Lafranche,ceo,1959.0,Suresnes et mort le 2,48.870298,2.230159,92,Hauts-de-Seine,Île-de-France,https://fr.wikipedia.org/wiki/Daniel_Lafranche,Suresnes,
Mounir Laggoune,ceo,1990.0,Chambéry,47.165242,-1.034458,49,Maine-et-Loire,Pays de la Loire,https://fr.wikipedia.org/wiki/Mounir_Laggoune,Beaupréau-en-Mauges,
René Laederich,ceo,1861.0,Mulhouse,47.749509,7.36973,68,Haut-Rhin,Grand Est,https://fr.wikipedia.org/wiki/Ren%C3%A9_Laederich,Riedisheim,
Gérard de La Martinière,ceo,1943.0,Angers,47.467471,-0.561615,49,Maine-et-Loire,Pays de la Loire,https://fr.wikipedia.org/wiki/G%C3%A9rard_de_La_Martini%C3%A8re,Angers,
Patricia Langrand,ceo,1963.0,Marseille,43.282,5.405,13,Bouches-du-Rhône,Provence-Alpes-Côte d'Azur,https://fr.wikipedia.org/wiki/Patricia_Langrand,Marseille,
Hervé de La Martinière,ceo,1947.0,Courbevoie,48.897974,2.257057,92,Hauts-de-Seine,Île-de-France,https://fr.wikipedia.org/wiki/Herv%C3%A9_de_La_Martini%C3%A8re,Courbevoie,
Marc-Étienne Lansade,ceo,1973.0,Unknown,,,,,,https://fr.wikipedia.org/wiki/Marc-%C3%89tienne_Lansade,Unknown,
Didier Lamouche,ceo,1959.0,Meknès,43.31365,5.454245,13,Bouches-du-Rhône,Provence-Alpes-Côte d'Azur,https://fr.wikipedia.org/wiki/Didier_Lamouche,Marseille,
Marc Laufer,ceo,1964.0,Unknown,,,,,,https://fr.wikipedia.org/wiki/Marc_Laufer,Unknown,
Jean-Claude Lavorel,ceo,1948.0,Unknown,,,,,,https://fr.wikipedia.org/wiki/Jean-Claude_Lavorel,Unknown,
Thierry de La Tour d'Artaise,ceo,1954.0,Lyon,45.758,4.835,69,Rhône,Auvergne-Rhône-Alpes,https://fr.wikipedia.org/wiki/Thierry_de_La_Tour_d%27Artaise,Lyon,
René de La Serre,ceo,1940.0,Lancieux,48.603874,-2.148088,22,Côtes-d'Armor,Bretagne,https://fr.wikipedia.org/wiki/Ren%C3%A9_de_La_Serre,Lancieux,
Fatine Layt,ceo,1967.0,Casablanca,43.663279,-1.288498,40,Landes,Nouvelle-Aquitaine,https://fr.wikipedia.org/wiki/Fatine_Layt,Saint-Vincent-de-Tyrosse,
Simon Lazard (1901-2004),ceo,1901.0,Unknown,,,,,,https://fr.wikipedia.org/wiki/Simon_Lazard_(1901-2004),Unknown,
Loïk Le Floch-Prigent,ceo,1943.0,Brest,48.406435,-4.497736,29,Finistère,Bretagne,https://fr.wikipedia.org/wiki/Lo%C3%AFk_Le_Floch-Prigent,Brest,
Léon Leblanc,ceo,1900.0,La Couture-Boussey,48.901863,1.396544,27,Eure,Normandie,https://fr.wikipedia.org/wiki/L%C3%A9on_Leblanc,La Couture-Boussey,
Olivier Lecerf,ceo,1929.0,Merville-Franceville-,49.269069,-0.192608,14,Calvados,Normandie,https://fr.wikipedia.org/wiki/Olivier_Lecerf,Merville-Franceville-Plage,
Grégoire Leclercq,ceo,1983.0,Valence (Drôme),44.580095,4.753405,26,Drôme,Auvergne-Rhône-Alpes,https://fr.wikipedia.org/wiki/Gr%C3%A9goire_Leclercq,Montélimar,
Antoine Lécea,ceo,1934.0,Olazagutia,,,,,,https://fr.wikipedia.org/wiki/Antoine_L%C3%A9cea,Olazagutia,
Armand Lederlin,ceo,1836.0,Strasbourg,48.579831,7.761454,67,Bas-Rhin,Grand Est,https://fr.wikipedia.org/wiki/Armand_Lederlin,Strasbourg,
Michel Leclerc (entrepreneur),ceo,1939.0,Landerneau,48.450764,-4.26042,29,Finistère,Bretagne,https://fr.wikipedia.org/wiki/Michel_Leclerc_(entrepreneur),Landerneau,
Jean Le Duc (homme d’affaires),ceo,1896.0,Ville-d'Avray le 14 n,48.823916,2.18236,92,Hauts-de-Seine,Île-de-France,https://fr.wikipedia.org/wiki/Jean_Le_Duc_(homme_d%E2%80%99affaires),Ville-d'Avray,
Dominique Lefebvre (banquier),ceo,1961.0,Eure-et-Loir,48.435568,1.48376,28,Eure-et-Loir,Centre-Val de Loire,https://fr.wikipedia.org/wiki/Dominique_Lefebvre_(banquier),Chartres,
Thierry Le Hénaff,ceo,1963.0,Savigny-sur-Orge,48.685402,2.349213,91,Essonne,Île-de-France,https://fr.wikipedia.org/wiki/Thierry_Le_H%C3%A9naff,Savigny-sur-Orge,
May-Éliane de Lencquesaing,ceo,1925.0,Bordeaux,44.851897,-0.587877,33,Gironde,Nouvelle-Aquitaine,https://fr.wikipedia.org/wiki/May-%C3%89liane_de_Lencquesaing,Bordeaux,
Antoine Lemarchand,ceo,1972.0,Champigny-sur-Marne,48.817209,2.521265,94,Val-de-Marne,Île-de-France,https://fr.wikipedia.org/wiki/Antoine_Lemarchand,Champigny-sur-Marne,
Robert Lemaignen,ceo,1893.0,Blois,47.581228,1.316533,41,Loir-et-Cher,Centre-Val de Loire,https://fr.wikipedia.org/wiki/Robert_Lemaignen,Blois,
Matthias Leridon,ceo,1962.0,Paris,48.859,2.347,75,Paris,Île-de-France,https://fr.wikipedia.org/wiki/Matthias_Leridon,Paris,
Alain Lévy (chef d'entreprise),ceo,1946.0,Metz,49.108385,6.194891,57,Moselle,Grand Est,https://fr.wikipedia.org/wiki/Alain_L%C3%A9vy_(chef_d%27entreprise),Metz,
Patrick Le Seyec,ceo,1950.0,Saint-Doulchard,47.108769,2.363377,18,Cher,Centre-Val de Loire,https://fr.wikipedia.org/wiki/Patrick_Le_Seyec,Saint-Doulchard,
Dominique Loiseau (restauratrice),ceo,1953.0,Neuilly-sur-Seine,48.886191,2.265869,92,Hauts-de-Seine,Île-de-France,https://fr.wikipedia.org/wiki/Dominique_Loiseau_(restauratrice),Neuilly-sur-Seine,
Pierre Liotard-Vogt,ceo,1909.0,Londres au XXe siècle,49.005366,-0.390065,14,Calvados,Normandie,https://fr.wikipedia.org/wiki/Pierre_Liotard-Vogt,Fresney-le-Vieux,
Pierre-Noël Luiggi,ceo,1964.0,Bastia le 25 décembre,48.153065,7.319335,68,Haut-Rhin,Grand Est,https://fr.wikipedia.org/wiki/Pierre-No%C3%ABl_Luiggi,Mittelwihr,
Pascal Lorne,ceo,1972.0,Valence,44.920925,4.92297,26,Drôme,Auvergne-Rhône-Alpes,https://fr.wikipedia.org/wiki/Pascal_Lorne,Valence,
Bertrand Mabille,ceo,1964.0,Paris,48.859,2.347,75,Paris,Île-de-France,https://fr.wikipedia.org/wiki/Bertrand_Mabille,Paris,
Didier Lupfer,ceo,1964.0,Lunéville,48.593492,6.497808,54,Meurthe-et-Moselle,Grand Est,https://fr.wikipedia.org/wiki/Didier_Lupfer,Lunéville,
Catherine MacGregor,ceo,1972.0,Salé,46.962139,0.906435,37,Indre-et-Loire,Centre-Val de Loire,https://fr.wikipedia.org/wiki/Catherine_MacGregor,La Celle-Guenand,
Émile Maechling,ceo,1878.0,Strasbourg,48.579831,7.761454,67,Bas-Rhin,Grand Est,https://fr.wikipedia.org/wiki/%C3%89mile_Maechling,Strasbourg,
Emmanuelle Malecaze-Doublet,ceo,1987.0,Unknown,,,,,,https://fr.wikipedia.org/wiki/Emmanuelle_Malecaze-Doublet,Unknown,
Viviane Malet,ceo,1954.0,Unknown,,,,,,https://fr.wikipedia.org/wiki/Viviane_Malet,Unknown,
Didier Maïsto,ceo,1966.0,Toulon,43.136379,5.933443,83,Var,Provence-Alpes-Côte d'Azur,https://fr.wikipedia.org/wiki/Didier_Ma%C3%AFsto,Toulon,
Marie-Joseph Malé,ceo,1960.0,Cameroun,49.488009,0.122371,76,Seine-Maritime,Normandie,https://fr.wikipedia.org/wiki/Marie-Joseph_Mal%C3%A9,Le Havre,
Victoire de Margerie,ceo,1963.0,Suresnes,48.870985,2.218087,92,Hauts-de-Seine,Île-de-France,https://fr.wikipedia.org/wiki/Victoire_de_Margerie,Suresnes,
Jean-Claude Marian,ceo,,Unknown,,,,,,https://fr.wikipedia.org/wiki/Jean-Claude_Marian,Unknown,
Christophe de Margerie,ceo,1951.0,Mareuil-sur-Lay-Dissais,46.536867,-1.235402,85,Vendée,Pays de la Loire,https://fr.wikipedia.org/wiki/Christophe_de_Margerie,Mareuil-sur-Lay-Dissais,
Pascal Markowsky,ceo,1954.0,Valenciennes,50.358552,3.510438,59,Nord,Hauts-de-France,https://fr.wikipedia.org/wiki/Pascal_Markowsky,Valenciennes,
Guy Mathiolon,ceo,1954.0,Lyon,45.758,4.835,69,Rhône,Auvergne-Rhône-Alpes,https://fr.wikipedia.org/wiki/Guy_Mathiolon,Lyon,
Raoul-Louis Mattei,ceo,1921.0,Marseille,43.282,5.405,13,Bouches-du-Rhône,Provence-Alpes-Côte d'Azur,https://fr.wikipedia.org/wiki/Raoul-Louis_Mattei,Marseille,
Benoit Maurice,ceo,1971.0,Toulon,43.136379,5.933443,83,Var,Provence-Alpes-Côte d'Azur,https://fr.wikipedia.org/wiki/Benoit_Maurice,Toulon,
Gilbert May,ceo,1925.0,Strasbourg,48.579831,7.761454,67,Bas-Rhin,Grand Est,https://fr.wikipedia.org/wiki/Gilbert_May,Strasbourg,
Raphael Melki,ceo,1973.0,Paris,48.859,2.347,75,Paris,Île-de-France,https://fr.wikipedia.org/wiki/Raphael_Melki,Paris,
Ross McInnes,ceo,1954.0,Calcutta,45.69604,-0.316374,16,Charente,Nouvelle-Aquitaine,https://fr.wikipedia.org/wiki/Ross_McInnes,Cognac,
Alexandre Mérieux,ceo,1974.0,Lyon,45.758,4.835,69,Rhône,Auvergne-Rhône-Alpes,https://fr.wikipedia.org/wiki/Alexandre_M%C3%A9rieux,Lyon,
Arthur Mensch,ceo,1992.0,Sèvres,48.819588,2.212003,92,Hauts-de-Seine,Île-de-France,https://fr.wikipedia.org/wiki/Arthur_Mensch,Sèvres,
André Mentzelopoulos,ceo,1915.0,Patras,44.486592,0.196007,47,Lot-et-Garonne,Nouvelle-Aquitaine,https://fr.wikipedia.org/wiki/Andr%C3%A9_Mentzelopoulos,Marmande,
Frédéric Mériot,ceo,1964.0,Toulouse,43.604082,1.433805,31,Haute-Garonne,Occitanie,https://fr.wikipedia.org/wiki/Fr%C3%A9d%C3%A9ric_M%C3%A9riot,Toulouse,
Bruno Mettling,ceo,1958.0,Lyon,45.758,4.835,69,Rhône,Auvergne-Rhône-Alpes,https://fr.wikipedia.org/wiki/Bruno_Mettling,Lyon,
Jean Mersch,ceo,1911.0,Gentilly (Val-de-Marne),48.81641,2.348146,94,Val-de-Marne,Île-de-France,https://fr.wikipedia.org/wiki/Jean_Mersch,Gentilly,
Victor de Metz,ceo,1902.0,Vesoul,47.628692,6.157979,70,Haute-Saône,Bourgogne-Franche-Comté,https://fr.wikipedia.org/wiki/Victor_de_Metz,Vesoul,
Léone-Noëlle Meyer,ceo,1939.0,Unknown,,,,,,https://fr.wikipedia.org/wiki/L%C3%A9one-No%C3%ABlle_Meyer,Unknown,
Sophia Metz,ceo,1986.0,Europe,48.413139,-4.493079,29,Finistère,Bretagne,https://fr.wikipedia.org/wiki/Sophia_Metz,Brest,
Alexandre Meyer,ceo,1966.0,Boulogne-Billancourt,48.837799,2.243202,92,Hauts-de-Seine,Île-de-France,https://fr.wikipedia.org/wiki/Alexandre_Meyer,Boulogne-Billancourt,
Georges Meyer,ceo,1930.0,Coteau,45.882999,1.032178,87,Haute-Vienne,Nouvelle-Aquitaine,https://fr.wikipedia.org/wiki/Georges_Meyer,Saint-Victurnien,
Bernard Michel (chef d'entreprise),ceo,1948.0,Unknown,,,,,,https://fr.wikipedia.org/wiki/Bernard_Michel_(chef_d%27entreprise),Unknown,
Marie Meynadier,ceo,1961.0,Tlemcen,48.864894,2.388007,75,Paris,Île-de-France,https://fr.wikipedia.org/wiki/Marie_Meynadier,Paris,
Raoul Meyer,ceo,1892.0,Villefranche-sur-Saône,45.985089,4.724382,69,Rhône,Auvergne-Rhône-Alpes,https://fr.wikipedia.org/wiki/Raoul_Meyer,Villefranche-sur-Saône,
Pierre Michelin,ceo,1903.0,Royat le 12 août 1903,,,,,,https://fr.wikipedia.org/wiki/Pierre_Michelin,Royat le 12 août 1903,
Vincent Miclet,ceo,1965.0,Tchad,43.595056,1.424521,31,Haute-Garonne,Occitanie,https://fr.wikipedia.org/wiki/Vincent_Miclet,Toulouse,
Jean-Marc Miton,ceo,1959.0,Pontivy,48.065625,-2.975174,56,Morbihan,Bretagne,https://fr.wikipedia.org/wiki/Jean-Marc_Miton,Pontivy,
Bastien Millot,ceo,1972.0,Saint-Quentin,49.847398,3.28745,02,Aisne,Hauts-de-France,https://fr.wikipedia.org/wiki/Bastien_Millot,Saint-Quentin,
Patrick Molis,ceo,1958.0,Paris,48.859,2.347,75,Paris,Île-de-France,https://fr.wikipedia.org/wiki/Patrick_Molis,Paris,
Arnaud Molinié,ceo,1973.0,Argenteuil (Val-d'Oise),48.962384,2.276478,95,Val-d'Oise,Île-de-France,https://fr.wikipedia.org/wiki/Arnaud_Molini%C3%A9,Argenteuil,
Pascal Monfort,ceo,1974.0,Briey,49.256168,6.023892,57,Moselle,Grand Est,https://fr.wikipedia.org/wiki/Pascal_Monfort,Moyeuvre-Grande,
Nicolas Moreau (chef d'entreprise),ceo,1965.0,Neuilly-sur-Seine,48.886191,2.265869,92,Hauts-de-Seine,Île-de-France,https://fr.wikipedia.org/wiki/Nicolas_Moreau_(chef_d%27entreprise),Neuilly-sur-Seine,
Jean Monville,ceo,1944.0,Orléans,47.873569,1.911358,45,Loiret,Centre-Val de Loire,https://fr.wikipedia.org/wiki/Jean_Monville,Orléans,
Adrien de Montgolfier-Verpilleux,ceo,1831.0,Beaujeu (Rhône),46.152046,4.589964,69,Rhône,Auvergne-Rhône-Alpes,https://fr.wikipedia.org/wiki/Adrien_de_Montgolfier-Verpilleux,Beaujeu,
Emmanuel Mounier (entrepreneur et éditeur),ceo,1973.0,Guéret le 27 mai 1973,46.176096,1.878279,23,Creuse,Nouvelle-Aquitaine,https://fr.wikipedia.org/wiki/Emmanuel_Mounier_(entrepreneur_et_%C3%A9diteur),Guéret,
François Morinière,ceo,1964.0,Boulogne-Billancourt,48.837799,2.243202,92,Hauts-de-Seine,Île-de-France,https://fr.wikipedia.org/wiki/Fran%C3%A7ois_Morini%C3%A8re,Boulogne-Billancourt,
Pierre Nanterme,ceo,1959.0,Lyon et mort le 31 ja,,,,,,https://fr.wikipedia.org/wiki/Pierre_Nanterme,Lyon et mort le 31 ja,
Frédéric Motte,ceo,1964.0,Armentières,50.692113,2.879124,59,Nord,Hauts-de-France,https://fr.wikipedia.org/wiki/Fr%C3%A9d%C3%A9ric_Motte,Armentières,
Bertin Nahum,ceo,1969.0,Dakar,43.586762,1.478584,31,Haute-Garonne,Occitanie,https://fr.wikipedia.org/wiki/Bertin_Nahum,Toulouse,
Catégorie:Dirigeant français d'entreprise de jeux vidéo,ceo,,Unknown,,,,,,https://fr.wikipedia.org/wiki/Cat%C3%A9gorie:Dirigeant_fran%C3%A7ais_d%27entreprise_de_jeux_vid%C3%A9o,Unknown,
Catégorie:Dirigeante française d'entreprise de jeux vidéo,ceo,,Unknown,,,,,,https://fr.wikipedia.org/wiki/Cat%C3%A9gorie:Dirigeante_fran%C3%A7aise_d%27entreprise_de_jeux_vid%C3%A9o,Unknown,
Catégorie:Chef d'entreprise en Nouvelle-Calédonie,ceo,,Unknown,,,,,,https://fr.wikipedia.org/wiki/Cat%C3%A9gorie:Chef_d%27entreprise_en_Nouvelle-Cal%C3%A9donie,Unknown,
Paola Audrey Ndengue,ceo,1989.0,Douala,48.143227,-1.813778,35,Ille-et-Vilaine,Bretagne,https://fr.wikipedia.org/wiki/Paola_Audrey_Ndengue,Pacé,
Raoul Nanty,ceo,1882.0,Avignon,48.390692,-1.759389,35,Ille-et-Vilaine,Bretagne,https://fr.wikipedia.org/wiki/Raoul_Nanty,Combourg,
Maurice de Nieuil,ceo,1859.0,Chalandray et mort le,46.661627,-0.007432,86,Vienne,Nouvelle-Aquitaine,https://fr.wikipedia.org/wiki/Maurice_de_Nieuil,Chalandray,
Jacques Nicolet,ceo,1956.0,Monaco,41.642052,8.961445,2A,Corse-du-Sud,Corse,https://fr.wikipedia.org/wiki/Jacques_Nicolet,Sartène,
Franck Nivault,ceo,1948.0,Pordic,48.570186,-2.821804,22,Côtes-d'Armor,Bretagne,https://fr.wikipedia.org/wiki/Franck_Nivault,Pordic,
Xavier Niel,ceo,1967.0,Maisons-Alfort,48.801685,2.440318,94,Val-de-Marne,Île-de-France,https://fr.wikipedia.org/wiki/Xavier_Niel,Maisons-Alfort,
Jean-Raphaël Notton,ceo,1957.0,Unknown,,,,,,https://fr.wikipedia.org/wiki/Jean-Rapha%C3%ABl_Notton,Unknown,
Jean-Michel Noir,ceo,1967.0,Lyon,45.758,4.835,69,Rhône,Auvergne-Rhône-Alpes,https://fr.wikipedia.org/wiki/Jean-Michel_Noir,Lyon,
Maurice Opinel,ceo,1927.0,Savoie,44.617348,0.181972,47,Lot-et-Garonne,Nouvelle-Aquitaine,https://fr.wikipedia.org/wiki/Maurice_Opinel,Lévignac-de-Guyenne,
Simon Nora,ceo,1921.0,Paris 16,,,,,,https://fr.wikipedia.org/wiki/Simon_Nora,Paris 16,
Luc Oursel,ceo,1959.0,Boulogne-Billancourt,48.837799,2.243202,92,Hauts-de-Seine,Île-de-France,https://fr.wikipedia.org/wiki/Luc_Oursel,Boulogne-Billancourt,
Joseph Oughourlian,ceo,1972.0,Paris,48.859,2.347,75,Paris,Île-de-France,https://fr.wikipedia.org/wiki/Joseph_Oughourlian,Paris,
Jean-Yves Parisot,ceo,1964.0,Unknown,,,,,,https://fr.wikipedia.org/wiki/Jean-Yves_Parisot,Unknown,
Gabriel Pallez,ceo,1925.0,Metz,49.108385,6.194891,57,Moselle,Grand Est,https://fr.wikipedia.org/wiki/Gabriel_Pallez,Metz,
Marc Palanques,ceo,1961.0,Carcassonne,43.206781,2.349415,11,Aude,Occitanie,https://fr.wikipedia.org/wiki/Marc_Palanques,Carcassonne,
Jean-Paul Parayre,ceo,1937.0,Lorient,47.750364,-3.378025,56,Morbihan,Bretagne,https://fr.wikipedia.org/wiki/Jean-Paul_Parayre,Lorient,
Colonel Passy,ceo,1911.0,Paris 16,48.856305,2.267032,75,Paris,Île-de-France,https://fr.wikipedia.org/wiki/Colonel_Passy,Paris 16e Arrondissement,
Alain Pelletier,ceo,1933.0,Lapalisse,46.266476,3.641815,03,Allier,Auvergne-Rhône-Alpes,https://fr.wikipedia.org/wiki/Alain_Pelletier,Lapalisse,
André Pelabon,ceo,1910.0,Vieux-Condé,50.474001,3.567392,59,Nord,Hauts-de-France,https://fr.wikipedia.org/wiki/Andr%C3%A9_Pelabon,Vieux-Condé,
Michel Pecqueur,ceo,,,,,,,,https://fr.wikipedia.org/wiki/Michel_Pecqueur,,"HTTPSConnectionPool(host='fr.wikipedia.org', port=443): Read timed out. (read timeout=5)"
Jacques de Peretti,ceo,1960.0,Marseille,43.282,5.405,13,Bouches-du-Rhône,Provence-Alpes-Côte d'Azur,https://fr.wikipedia.org/wiki/Jacques_de_Peretti,Marseille,
Armando Pereira,ceo,1952.0,Portugal,44.037845,0.647641,32,Gers,Occitanie,https://fr.wikipedia.org/wiki/Armando_Pereira,Sempesserre,
Pascal Perri,ceo,1959.0,Unknown,,,,,,https://fr.wikipedia.org/wiki/Pascal_Perri,Unknown,
Francis Perez,ceo,1962.0,Oran,44.131436,4.812545,84,Vaucluse,Provence-Alpes-Côte d'Azur,https://fr.wikipedia.org/wiki/Francis_Perez,Orange,
Thierry Petit (entrepreneur),ceo,1973.0,Nevers,46.988535,3.160778,58,Nièvre,Bourgogne-Franche-Comté,https://fr.wikipedia.org/wiki/Thierry_Petit_(entrepreneur),Nevers,
Pierre Peugeot,ceo,1932.0,Valentigney,47.465945,6.829692,25,Doubs,Bourgogne-Franche-Comté,https://fr.wikipedia.org/wiki/Pierre_Peugeot,Valentigney,
Philippe Petitcolin,ceo,1952.0,Saint-Mihiel,48.891687,5.542342,55,Meuse,Grand Est,https://fr.wikipedia.org/wiki/Philippe_Petitcolin,Saint-Mihiel,
Robert Peugeot (1950-),ceo,1950.0,Belfort,14.647746,-61.004454,972,Martinique,,https://fr.wikipedia.org/wiki/Robert_Peugeot_(1950-),Le Lamentin,
Robert Peugeot (1873-1945),ceo,1873.0,Unknown,,,,,,https://fr.wikipedia.org/wiki/Robert_Peugeot_(1873-1945),Unknown,
Thierry Peugeot,ceo,1957.0,Unknown,,,,,,https://fr.wikipedia.org/wiki/Thierry_Peugeot,Unknown,
Thierry Pilenko,ceo,1957.0,Lyon,45.758,4.835,69,Rhône,Auvergne-Rhône-Alpes,https://fr.wikipedia.org/wiki/Thierry_Pilenko,Lyon,
Christophe Piochon,ceo,1976.0,Unknown,,,,,,https://fr.wikipedia.org/wiki/Christophe_Piochon,Unknown,
Laurence Piketty,ceo,1963.0,Paris,48.859,2.347,75,Paris,Île-de-France,https://fr.wikipedia.org/wiki/Laurence_Piketty,Paris,
Xavier Piechaczyk,ceo,1969.0,Saint-Maur-des-Fossés,48.799943,2.491801,94,Val-de-Marne,Île-de-France,https://fr.wikipedia.org/wiki/Xavier_Piechaczyk,Saint-Maur-des-Fossés,
Maxime Picat,ceo,1974.0,Schiltigheim,48.611161,7.739943,67,Bas-Rhin,Grand Est,https://fr.wikipedia.org/wiki/Maxime_Picat,Schiltigheim,
Olivier Piou,ceo,1958.0,Dakar,43.586762,1.478584,31,Haute-Garonne,Occitanie,https://fr.wikipedia.org/wiki/Olivier_Piou,Toulouse,
Franck Poirrier,ceo,1959.0,Unknown,,,,,,https://fr.wikipedia.org/wiki/Franck_Poirrier,Unknown,
Jacques Poch,ceo,1912.0,Paris 18,48.896214,2.362997,75,Paris,Île-de-France,https://fr.wikipedia.org/wiki/Jacques_Poch,Paris,
Gwendal Poullennec,ceo,,Unknown,,,,,,https://fr.wikipedia.org/wiki/Gwendal_Poullennec,Unknown,
Charles Piot (entrepreneur),ceo,1904.0,Grenoble,45.182828,5.724369,38,Isère,Auvergne-Rhône-Alpes,https://fr.wikipedia.org/wiki/Charles_Piot_(entrepreneur),Grenoble,
Marie-Laure Pochon,ceo,1959.0,Tours,,,,,,https://fr.wikipedia.org/wiki/Marie-Laure_Pochon,Tours,
Henri Poupart-Lafarge,ceo,1969.0,Nancy,48.688135,6.171263,54,Meurthe-et-Moselle,Grand Est,https://fr.wikipedia.org/wiki/Henri_Poupart-Lafarge,Nancy,
Baudouin Prot,ceo,1951.0,Paris 17,48.887702,2.304844,75,Paris,Île-de-France,https://fr.wikipedia.org/wiki/Baudouin_Prot,Paris 17e Arrondissement,
Lionel Prat,ceo,1971.0,Quimperlé,47.861737,-3.559902,29,Finistère,Bretagne,https://fr.wikipedia.org/wiki/Lionel_Prat,Quimperlé,
Abel Poyaud,ceo,1884.0,Charente-Inférieure,45.653862,0.513553,16,Charente,Nouvelle-Aquitaine,https://fr.wikipedia.org/wiki/Abel_Poyaud,Montbron,
Benoît Prot,ceo,1950.0,Neuilly-sur-Seine,48.886191,2.265869,92,Hauts-de-Seine,Île-de-France,https://fr.wikipedia.org/wiki/Beno%C3%AEt_Prot,Neuilly-sur-Seine,
Jean-Pierre Prouteau,ceo,1930.0,Paris 13,48.830193,2.365001,75,Paris,Île-de-France,https://fr.wikipedia.org/wiki/Jean-Pierre_Prouteau,Paris 13e Arrondissement,
François Provost,ceo,1968.0,France,47.925801,-1.900942,35,Ille-et-Vilaine,Bretagne,https://fr.wikipedia.org/wiki/Fran%C3%A7ois_Provost,Guignen,
André Puget (militaire),ceo,1911.0,Nantes,47.239367,-1.555335,44,Loire-Atlantique,Pays de la Loire,https://fr.wikipedia.org/wiki/Andr%C3%A9_Puget_(militaire),Nantes,
Jean-Claude Puerto-Salavert,ceo,1957.0,Lot-et-Garonne,47.795789,7.176422,68,Haut-Rhin,Grand Est,https://fr.wikipedia.org/wiki/Jean-Claude_Puerto-Salavert,Cernay,
Robert Puiseux,ceo,1892.0,Paris 5,48.845277,2.350554,75,Paris,Île-de-France,https://fr.wikipedia.org/wiki/Robert_Puiseux,Paris 5e Arrondissement,
Arnaud de Puyfontaine,ceo,1964.0,Paris,48.859,2.347,75,Paris,Île-de-France,https://fr.wikipedia.org/wiki/Arnaud_de_Puyfontaine,Paris,
Camille Putois,ceo,1969.0,Boulogne-Billancourt,48.837799,2.243202,92,Hauts-de-Seine,Île-de-France,https://fr.wikipedia.org/wiki/Camille_Putois,Boulogne-Billancourt,
Hassen Rachedi,ceo,1965.0,Grenoble,45.182828,5.724369,38,Isère,Auvergne-Rhône-Alpes,https://fr.wikipedia.org/wiki/Hassen_Rachedi,Grenoble,
François-Henri Raymond,ceo,1914.0,Paris 14,48.830108,2.323026,75,Paris,Île-de-France,https://fr.wikipedia.org/wiki/Fran%C3%A7ois-Henri_Raymond,Paris 14e Arrondissement,
Jacques Reboh,ceo,1968.0,Grenoble,45.182828,5.724369,38,Isère,Auvergne-Rhône-Alpes,https://fr.wikipedia.org/wiki/Jacques_Reboh,Grenoble,
Marie Quinton,ceo,1854.0,Royat,45.758891,3.045271,63,Puy-de-Dôme,Auvergne-Rhône-Alpes,https://fr.wikipedia.org/wiki/Marie_Quinton,Royat,
Lucien Rebuffel,ceo,1927.0,Cannes,43.555468,7.004585,06,Alpes-Maritimes,Provence-Alpes-Côte d'Azur,https://fr.wikipedia.org/wiki/Lucien_Rebuffel,Cannes,
Damien Regnard,ceo,1966.0,Paris,48.859,2.347,75,Paris,Île-de-France,https://fr.wikipedia.org/wiki/Damien_Regnard,Paris,
Laurent Redon,ceo,1973.0,Saint-Chamond,45.470463,4.505748,42,Loire,Auvergne-Rhône-Alpes,https://fr.wikipedia.org/wiki/Laurent_Redon,Saint-Chamond,
Jean Renaudin,ceo,1903.0,Charleville,47.712416,1.331499,41,Loir-et-Cher,Centre-Val de Loire,https://fr.wikipedia.org/wiki/Jean_Renaudin,Maves,
Philippe Redon,ceo,1950.0,Gorron,48.420028,-0.803042,53,Mayenne,Pays de la Loire,https://fr.wikipedia.org/wiki/Philippe_Redon,Gorron,
Louis Renault (industriel),ceo,1877.0,Paris 8,48.873998,2.31129,75,Paris,Île-de-France,https://fr.wikipedia.org/wiki/Louis_Renault_(industriel),Paris,
Évelyne Renaud-Garabedian,ceo,1950.0,Créteil,48.784506,2.452976,94,Val-de-Marne,Île-de-France,https://fr.wikipedia.org/wiki/%C3%89velyne_Renaud-Garabedian,Créteil,
Paul Reverdy,ceo,1924.0,Paris 14,48.830108,2.323026,75,Paris,Île-de-France,https://fr.wikipedia.org/wiki/Paul_Reverdy,Paris 14e Arrondissement,
Jean-Noël Reynaud,ceo,1967.0,Unknown,,,,,,https://fr.wikipedia.org/wiki/Jean-No%C3%ABl_Reynaud,Unknown,
Alexandre Ricard,ceo,1972.0,Boulogne-Billancourt,48.837799,2.243202,92,Hauts-de-Seine,Île-de-France,https://fr.wikipedia.org/wiki/Alexandre_Ricard,Boulogne-Billancourt,
Anne Rigail,ceo,1969.0,Metz,49.108385,6.194891,57,Moselle,Grand Est,https://fr.wikipedia.org/wiki/Anne_Rigail,Metz,
Christophe Riboud,ceo,1950.0,New York,44.869736,-0.54963,33,Gironde,Nouvelle-Aquitaine,https://fr.wikipedia.org/wiki/Christophe_Riboud,Bordeaux,
Jacques Richier,ceo,1955.0,Maroc,48.246969,-1.994383,35,Ille-et-Vilaine,Bretagne,https://fr.wikipedia.org/wiki/Jacques_Richier,Landujan,
François Rivière (homme d'affaires),ceo,1964.0,Chambéry,47.165242,-1.034458,49,Maine-et-Loire,Pays de la Loire,https://fr.wikipedia.org/wiki/Fran%C3%A7ois_Rivi%C3%A8re_(homme_d%27affaires),Beaupréau-en-Mauges,
Xavier Rodriguez,ceo,,Unknown,,,,,,https://fr.wikipedia.org/wiki/Xavier_Rodriguez,Unknown,
Jean Robin (éditeur),ceo,1978.0,Clermont-Ferrand,45.786671,3.107055,63,Puy-de-Dôme,Auvergne-Rhône-Alpes,https://fr.wikipedia.org/wiki/Jean_Robin_(%C3%A9diteur),Clermont-Ferrand,
Loïc Rocard,ceo,1972.0,Neuilly-sur-Seine,48.886191,2.265869,92,Hauts-de-Seine,Île-de-France,https://fr.wikipedia.org/wiki/Lo%C3%AFc_Rocard,Neuilly-sur-Seine,
Pascal Roché,ceo,1962.0,Paris,48.859,2.347,75,Paris,Île-de-France,https://fr.wikipedia.org/wiki/Pascal_Roch%C3%A9,Paris,
Jehanne Rousseau,ceo,1976.0,Unknown,,,,,,https://fr.wikipedia.org/wiki/Jehanne_Rousseau,Unknown,
Bruno Roger,ceo,1933.0,Boulogne-Billancourt,48.837799,2.243202,92,Hauts-de-Seine,Île-de-France,https://fr.wikipedia.org/wiki/Bruno_Roger,Boulogne-Billancourt,
François Rollier,ceo,1915.0,Paris 7,48.853954,2.312864,75,Paris,Île-de-France,https://fr.wikipedia.org/wiki/Fran%C3%A7ois_Rollier,Paris 7e Arrondissement,
Michel Rousselot (ingénieur),ceo,1931.0,Unknown,,,,,,https://fr.wikipedia.org/wiki/Michel_Rousselot_(ing%C3%A9nieur),Unknown,
Stéphane Roussel,ceo,1961.0,Paris 16,48.856305,2.267032,75,Paris,Île-de-France,https://fr.wikipedia.org/wiki/St%C3%A9phane_Roussel,Paris 16e Arrondissement,
Nicolas Rousselet,ceo,1965.0,Neuilly-sur-Seine,48.886191,2.265869,92,Hauts-de-Seine,Île-de-France,https://fr.wikipedia.org/wiki/Nicolas_Rousselet,Neuilly-sur-Seine,
Jacques Rose (football),ceo,1947.0,Hem,50.658041,3.193069,59,Nord,Hauts-de-France,https://fr.wikipedia.org/wiki/Jacques_Rose_(football),Hem,
Benoît de Ruffray,ceo,1966.0,Unknown,,,,,,https://fr.wikipedia.org/wiki/Beno%C3%AEt_de_Ruffray,Unknown,
Philippe Royer,ceo,1965.0,Argentan,48.729955,-0.013024,61,Orne,Normandie,https://fr.wikipedia.org/wiki/Philippe_Royer,Argentan,
Yazid Sabeg,ceo,1950.0,Guelma,48.883203,2.337169,75,Paris,Île-de-France,https://fr.wikipedia.org/wiki/Yazid_Sabeg,Paris,
Hubert Sagnières,ceo,1955.0,Vienne,45.802059,1.125658,87,Haute-Vienne,Nouvelle-Aquitaine,https://fr.wikipedia.org/wiki/Hubert_Sagni%C3%A8res,Aixe-sur-Vienne,
Philippe Salle,ceo,1965.0,Unknown,,,,,,https://fr.wikipedia.org/wiki/Philippe_Salle,Unknown,
Arash Saeidi,ceo,1975.0,Téhéran,48.876918,2.312637,75,Paris,Île-de-France,https://fr.wikipedia.org/wiki/Arash_Saeidi,Paris,
Robert Salmon (chef d'entreprise),ceo,1935.0,Neuilly-sur-Seine,48.886191,2.265869,92,Hauts-de-Seine,Île-de-France,https://fr.wikipedia.org/wiki/Robert_Salmon_(chef_d%27entreprise),Neuilly-sur-Seine,
Édouard Salustro,ceo,1929.0,Paris 18,48.896214,2.362997,75,Paris,Île-de-France,https://fr.wikipedia.org/wiki/%C3%89douard_Salustro,Paris,
Frédéric Sausset,ceo,1969.0,Blois,47.581228,1.316533,41,Loir-et-Cher,Centre-Val de Loire,https://fr.wikipedia.org/wiki/Fr%C3%A9d%C3%A9ric_Sausset,Blois,
Olivier Scalabre,ceo,1976.0,Unknown,,,,,,https://fr.wikipedia.org/wiki/Olivier_Scalabre,Unknown,
Jean-Pierre Savare,ceo,1937.0,Paris 14,48.830108,2.323026,75,Paris,Île-de-France,https://fr.wikipedia.org/wiki/Jean-Pierre_Savare,Paris 14e Arrondissement,
Guy Scherrer,ceo,1943.0,Mulhouse,47.749509,7.36973,68,Haut-Rhin,Grand Est,https://fr.wikipedia.org/wiki/Guy_Scherrer,Riedisheim,
Jean-René Sautier,ceo,1923.0,Périgueux,45.193072,0.711299,24,Dordogne,Nouvelle-Aquitaine,https://fr.wikipedia.org/wiki/Jean-Ren%C3%A9_Sautier,Périgueux,
Bernard Sananès,ceo,1963.0,Nice,43.71273,7.25092,06,Alpes-Maritimes,Provence-Alpes-Côte d'Azur,https://fr.wikipedia.org/wiki/Bernard_Sanan%C3%A8s,Nice,
Victor Scherrer,ceo,1943.0,Liège,44.848888,-0.628281,33,Gironde,Nouvelle-Aquitaine,https://fr.wikipedia.org/wiki/Victor_Scherrer,Bordeaux,
Nicolas Schimel,ceo,1965.0,Paris,48.859,2.347,75,Paris,Île-de-France,https://fr.wikipedia.org/wiki/Nicolas_Schimel,Paris,
André Ségura,ceo,1965.0,Grenoble,45.182828,5.724369,38,Isère,Auvergne-Rhône-Alpes,https://fr.wikipedia.org/wiki/Andr%C3%A9_S%C3%A9gura,Grenoble,
Jean-Dominique Senard,ceo,1953.0,Neuilly-sur-Seine,48.886191,2.265869,92,Hauts-de-Seine,Île-de-France,https://fr.wikipedia.org/wiki/Jean-Dominique_Senard,Neuilly-sur-Seine,
Thierry Schoen,ceo,1956.0,Châteauroux,45.960056,-0.890924,17,Charente-Maritime,Nouvelle-Aquitaine,https://fr.wikipedia.org/wiki/Thierry_Schoen,Tonnay-Charente,
Ernest-Antoine Seillière,ceo,1937.0,Neuilly-sur-Seine,48.886191,2.265869,92,Hauts-de-Seine,Île-de-France,https://fr.wikipedia.org/wiki/Ernest-Antoine_Seilli%C3%A8re,Neuilly-sur-Seine,
Albin Serviant,ceo,,Unknown,,,,,,https://fr.wikipedia.org/wiki/Albin_Serviant,Unknown,
Henri Seydoux,ceo,1960.0,Unknown,,,,,,https://fr.wikipedia.org/wiki/Henri_Seydoux,Unknown,
Gustave Louis Simon,ceo,1868.0,Moselle,43.587137,1.419465,31,Haute-Garonne,Occitanie,https://fr.wikipedia.org/wiki/Gustave_Louis_Simon,Toulouse,
Mathieu Serradori,ceo,1979.0,Fréjus,43.445657,6.770515,83,Var,Provence-Alpes-Côte d'Azur,https://fr.wikipedia.org/wiki/Mathieu_Serradori,Fréjus,
Stéphane Simon,ceo,1967.0,Nantes,47.239367,-1.555335,44,Loire-Atlantique,Pays de la Loire,https://fr.wikipedia.org/wiki/St%C3%A9phane_Simon,Nantes,
Martin Sion,ceo,1968.0,Vernon en 1990 et occ,,,,,,https://fr.wikipedia.org/wiki/Martin_Sion,Vernon en 1990 et occ,
Georges-Antoine Simonet,ceo,1710.0,Tarare (Rhône),45.9007,4.429772,69,Rhône,Auvergne-Rhône-Alpes,https://fr.wikipedia.org/wiki/Georges-Antoine_Simonet,Tarare,
Benoît Soury,ceo,1965.0,Rouen,49.349295,0.811661,27,Eure,Normandie,https://fr.wikipedia.org/wiki/Beno%C3%AEt_Soury,Bourg-Achard,
Hugues Souparis,ceo,1955.0,Saint-Céré,44.854274,1.904821,46,Lot,Occitanie,https://fr.wikipedia.org/wiki/Hugues_Souparis,Saint-Céré,
Sabrina Soussan,ceo,1969.0,Paris,48.859,2.347,75,Paris,Île-de-France,https://fr.wikipedia.org/wiki/Sabrina_Soussan,Paris,
Florent Steiner,ceo,1978.0,Unknown,,,,,,https://fr.wikipedia.org/wiki/Florent_Steiner,Unknown,
Laurent Spanghero,ceo,1939.0,Bram,43.249204,2.102677,11,Aude,Occitanie,https://fr.wikipedia.org/wiki/Laurent_Spanghero,Bram,
Christian Streiff,ceo,1954.0,Sarrebourg,48.736347,7.053883,57,Moselle,Grand Est,https://fr.wikipedia.org/wiki/Christian_Streiff,Sarrebourg,
Jacques Taffanel,ceo,1875.0,Paris 2,48.867669,2.341157,75,Paris,Île-de-France,https://fr.wikipedia.org/wiki/Jacques_Taffanel,Paris 2e Arrondissement,
Pierre-Édouard Stérin,ceo,1974.0,Évreux,49.020599,1.146898,27,Eure,Normandie,https://fr.wikipedia.org/wiki/Pierre-%C3%89douard_St%C3%A9rin,Évreux,
Claude Taittinger,ceo,1927.0,Paris 16,48.856305,2.267032,75,Paris,Île-de-France,https://fr.wikipedia.org/wiki/Claude_Taittinger,Paris 16e Arrondissement,
Bernard Tapie,ceo,1943.0,Paris 20,48.863367,2.397152,75,Paris,Île-de-France,https://fr.wikipedia.org/wiki/Bernard_Tapie,Paris 20e Arrondissement,
Pierre Taittinger,ceo,1887.0,Paris 18,48.896214,2.362997,75,Paris,Île-de-France,https://fr.wikipedia.org/wiki/Pierre_Taittinger,Paris,
Guy Taittinger,ceo,1918.0,Saintes,45.748804,-0.647217,17,Charente-Maritime,Nouvelle-Aquitaine,https://fr.wikipedia.org/wiki/Guy_Taittinger,Saintes,
Franck Terner,ceo,1960.0,Unknown,,,,,,https://fr.wikipedia.org/wiki/Franck_Terner,Unknown,
Alain Taravella,ceo,1948.0,Falaise (Calvados),49.169212,-0.352257,14,Calvados,Normandie,https://fr.wikipedia.org/wiki/Alain_Taravella,Caen,
Émile Taudière,ceo,1890.0,L'Absie,46.636252,-0.561076,79,Deux-Sèvres,Nouvelle-Aquitaine,https://fr.wikipedia.org/wiki/%C3%89mile_Taudi%C3%A8re,L'Absie,
Philippe Thomas (industriel),ceo,1918.0,Paris 16,48.856305,2.267032,75,Paris,Île-de-France,https://fr.wikipedia.org/wiki/Philippe_Thomas_(industriel),Paris 16e Arrondissement,
Nicolas Théry,ceo,1965.0,Lille,50.630951,3.045391,59,Nord,Hauts-de-France,https://fr.wikipedia.org/wiki/Nicolas_Th%C3%A9ry,Lille,
Patrick Thomas,ceo,1947.0,Dijon,47.331848,5.033601,21,Côte-d'Or,Bourgogne-Franche-Comté,https://fr.wikipedia.org/wiki/Patrick_Thomas,Dijon,
Jean-Noël Thorel,ceo,1947.0,Châtillon,47.304291,-1.770298,44,Loire-Atlantique,Pays de la Loire,https://fr.wikipedia.org/wiki/Jean-No%C3%ABl_Thorel,Saint-Étienne-de-Montluc,
Chenva Tieu,ceo,1963.0,Cambodge,48.86612,2.398103,75,Paris,Île-de-France,https://fr.wikipedia.org/wiki/Chenva_Tieu,Paris,
Bertille Toledano,ceo,,Unknown,,,,,,https://fr.wikipedia.org/wiki/Bertille_Toledano,Unknown,
Frédéric Tiberghien,ceo,1950.0,Tourcoing,50.720797,3.157799,59,Nord,Hauts-de-France,https://fr.wikipedia.org/wiki/Fr%C3%A9d%C3%A9ric_Tiberghien,Tourcoing,
Guy Tisserant,ceo,1961.0,Charmes,45.615475,4.773084,69,Rhône,Auvergne-Rhône-Alpes,https://fr.wikipedia.org/wiki/Guy_Tisserant,Millery,
Émile Tony,ceo,1874.0,Wissembourg,49.01481,7.953222,67,Bas-Rhin,Grand Est,https://fr.wikipedia.org/wiki/%C3%89mile_Tony,Wissembourg,
Georges Tranchant,ceo,1929.0,Château-Porcien,49.530711,4.24987,08,Ardennes,Grand Est,https://fr.wikipedia.org/wiki/Georges_Tranchant,Château-Porcien,
Jean-Pascal Tricoire,ceo,1963.0,Beaupréau,46.315928,-0.971038,17,Charente-Maritime,Nouvelle-Aquitaine,https://fr.wikipedia.org/wiki/Jean-Pascal_Tricoire,Marans,
Denis Troch,ceo,1959.0,Blanc-Mesnil,48.942858,2.456843,93,Seine-Saint-Denis,Île-de-France,https://fr.wikipedia.org/wiki/Denis_Troch,Le Blanc-Mesnil,
Pierre-Antoine Vacheron,ceo,1965.0,Unknown,,,,,,https://fr.wikipedia.org/wiki/Pierre-Antoine_Vacheron,Unknown,
Didier Truchot,ceo,1946.0,Boulogne-Billancourt,48.837799,2.243202,92,Hauts-de-Seine,Île-de-France,https://fr.wikipedia.org/wiki/Didier_Truchot,Boulogne-Billancourt,
Arnaud Vaissié,ceo,1954.0,Paris,48.859,2.347,75,Paris,Île-de-France,https://fr.wikipedia.org/wiki/Arnaud_Vaissi%C3%A9,Paris,
Marc Vanhove,ceo,,Unknown,,,,,,https://fr.wikipedia.org/wiki/Marc_Vanhove,Unknown,
Gérard de Turckheim,ceo,1923.0,Guebwiller,47.909349,7.212755,68,Haut-Rhin,Grand Est,https://fr.wikipedia.org/wiki/G%C3%A9rard_de_Turckheim,Guebwiller,
Georges Vanderchmitt,ceo,1949.0,Ustaritz au XXe siècle,49.005366,-0.390065,14,Calvados,Normandie,https://fr.wikipedia.org/wiki/Georges_Vanderchmitt,Fresney-le-Vieux,
Philippe Varin,ceo,1952.0,Reims,49.250948,4.055595,51,Marne,Grand Est,https://fr.wikipedia.org/wiki/Philippe_Varin,Reims,
Jean-Marc Vernes,ceo,1922.0,Paris 16,48.856305,2.267032,75,Paris,Île-de-France,https://fr.wikipedia.org/wiki/Jean-Marc_Vernes,Paris 16e Arrondissement,
Bernard Vernier-Palliez,ceo,1918.0,Tours,47.395476,0.695848,37,Indre-et-Loire,Centre-Val de Loire,https://fr.wikipedia.org/wiki/Bernard_Vernier-Palliez,Tours,
Tristan Vieljeux,ceo,2014.0,La Rochelle,47.984627,-1.65389,35,Ille-et-Vilaine,Bretagne,https://fr.wikipedia.org/wiki/Tristan_Vieljeux,Orgères,
Georges Vidor,ceo,1861.0,Boulogne-sur-Mer,50.726334,1.607492,62,Pas-de-Calais,Hauts-de-France,https://fr.wikipedia.org/wiki/Georges_Vidor,Boulogne-sur-Mer,
Robert de Vogüé,ceo,1870.0,Boulleret et mort le,,,,,,https://fr.wikipedia.org/wiki/Robert_de_Vog%C3%BC%C3%A9,Boulleret et mort le,
Nicolas de Villiers,ceo,1979.0,La Roche-sur-Yon,46.670848,-1.412533,85,Vendée,Pays de la Loire,https://fr.wikipedia.org/wiki/Nicolas_de_Villiers,La Roche-sur-Yon,
Bruno Voland,ceo,1966.0,Saint-Nazaire,47.275247,-2.242494,44,Loire-Atlantique,Pays de la Loire,https://fr.wikipedia.org/wiki/Bruno_Voland,Saint-Nazaire,
Roland Wagner (brasseur),ceo,1925.0,Strasbourg,48.579831,7.761454,67,Bas-Rhin,Grand Est,https://fr.wikipedia.org/wiki/Roland_Wagner_(brasseur),Strasbourg,
Francis Wacziarg,ceo,1942.0,Cuba,43.296029,1.372325,09,Ariège,Occitanie,https://fr.wikipedia.org/wiki/Francis_Wacziarg,Lézat-sur-Lèze,
Christian de Waldner,ceo,1908.0,Paris 8,48.873998,2.31129,75,Paris,Île-de-France,https://fr.wikipedia.org/wiki/Christian_de_Waldner,Paris,
Rémy Weber,ceo,1957.0,Strasbourg,48.579831,7.761454,67,Bas-Rhin,Grand Est,https://fr.wikipedia.org/wiki/R%C3%A9my_Weber,Strasbourg,
Jacques Warnier,ceo,1901.0,Reims,49.250948,4.055595,51,Marne,Grand Est,https://fr.wikipedia.org/wiki/Jacques_Warnier,Reims,
Gérard Worms (banquier),ceo,1936.0,Paris 11,48.860162,2.381844,75,Paris,Île-de-France,https://fr.wikipedia.org/wiki/G%C3%A9rard_Worms_(banquier),Paris 11e Arrondissement,
Alice Zagury,ceo,1984.0,Paris,48.859,2.347,75,Paris,Île-de-France,https://fr.wikipedia.org/wiki/Alice_Zagury,Paris,
René Zingraff,ceo,1936.0,Créhange,49.060453,6.579597,57,Moselle,Grand Est,https://fr.wikipedia.org/wiki/Ren%C3%A9_Zingraff,Créhange,
Eddy Zdziech,ceo,1956.0,Raismes,50.397739,3.493164,59,Nord,Hauts-de-France,https://fr.wikipedia.org/wiki/Eddy_Zdziech,Raismes,
Yves Zuber,ceo,1884.0,Unknown,,,,,,https://fr.wikipedia.org/wiki/Yves_Zuber,Unknown,
Joseph Zamanski,ceo,1874.0,Parthenay,46.644061,-0.240067,79,Deux-Sèvres,Nouvelle-Aquitaine,https://fr.wikipedia.org/wiki/Joseph_Zamanski,Parthenay,
Jean-François Zobrist,ceo,1944.0,Gap,44.563233,6.076778,05,Hautes-Alpes,Provence-Alpes-Côte d'Azur,https://fr.wikipedia.org/wiki/Jean-Fran%C3%A7ois_Zobrist,Gap,
